[
    {
      "stationTriplet": "304:OR:SNTL",
      "stationId": 304,
      "stateCode": "OR",
      "networkCode": "SNTL",
      "name": "Arbuckle Mtn",
      "dcoCode": "OR",
      "countyName": "Morrow",
      "huc": 170702020604,
      "elevation": 5770,
      "latitude": 45.19085,
      "longitude": -119.25392,
      "dataTimeZone": -8,
      "shefId": "ARBO3",
      "beginDate": "1978-10-01 00:00",
      "endDate": "2100-01-01 00:00",
      "pedonCode": ""
    },
    {
      "stationTriplet": "316:NM:SNTL",
      "stationId": 316,
      "stateCode": "NM",
      "networkCode": "SNTL",
      "name": "Bateman",
      "dcoCode": "CO",
      "countyName": "Rio Arriba",
      "huc": 130201020901,
      "elevation": 9230,
      "latitude": 36.51174,
      "longitude": -106.31543,
      "dataTimeZone": -8,
      "shefId": "BAMN5",
      "beginDate": "1978-10-01 00:00",
      "endDate": "2100-01-01 00:00",
      "pedonCode": ""
    },
    {
      "stationTriplet": "317:WY:SNTL",
      "stationId": 317,
      "stateCode": "WY",
      "networkCode": "SNTL",
      "name": "Battle Mountain",
      "dcoCode": "CO",
      "countyName": "Carbon",
      "huc": 140500030109,
      "elevation": 7460,
      "latitude": 41.05402,
      "longitude": -107.26674,
      "dataTimeZone": -8,
      "shefId": "BTLW4",
      "beginDate": "1985-10-01 00:00",
      "endDate": "2100-01-01 00:00",
      "pedonCode": ""
    },
    {
      "stationTriplet": "325:WY:SNTL",
      "stationId": 325,
      "stateCode": "WY",
      "networkCode": "SNTL",
      "name": "Bear Trap Meadow",
      "dcoCode": "MT",
      "countyName": "Johnson",
      "huc": 100902010205,
      "elevation": 8200,
      "latitude": 43.88743,
      "longitude": -107.06135,
      "dataTimeZone": -8,
      "shefId": "BTNW4",
      "beginDate": "1979-10-01 00:00",
      "endDate": "2100-01-01 00:00",
      "pedonCode": ""
    },
    {
      "stationTriplet": "328:MT:SNTL",
      "stationId": 328,
      "stateCode": "MT",
      "networkCode": "SNTL",
      "name": "Beaver Creek",
      "dcoCode": "MT",
      "countyName": "Gallatin",
      "huc": 100200070402,
      "elevation": 7820,
      "latitude": 44.94966,
      "longitude": -111.35852,
      "dataTimeZone": -8,
      "shefId": "BEVM8",
      "beginDate": "1966-10-01 00:00",
      "endDate": "2100-01-01 00:00",
      "pedonCode": ""
    },
    {
      "stationTriplet": "331:OR:SNTL",
      "stationId": 331,
      "stateCode": "OR",
      "networkCode": "SNTL",
      "name": "Beaver Reservoir",
      "dcoCode": "OR",
      "countyName": "Union",
      "huc": 170601040301,
      "elevation": 5140,
      "latitude": 45.14532,
      "longitude": -118.219,
      "dataTimeZone": -8,
      "shefId": "BVRO3",
      "beginDate": "1979-10-01 00:00",
      "endDate": "2100-01-01 00:00",
      "pedonCode": ""
    },
    {
      "stationTriplet": "333:UT:SNTL",
      "stationId": 333,
      "stateCode": "UT",
      "networkCode": "SNTL",
      "name": "Ben Lomond Trail",
      "dcoCode": "UT",
      "countyName": "Weber",
      "huc": 160201020302,
      "elevation": 5980,
      "latitude": 41.38291,
      "longitude": -111.92103,
      "dataTimeZone": -8,
      "shefId": "BLTU1",
      "beginDate": "1980-06-03 00:00",
      "endDate": "2100-01-01 00:00",
      "pedonCode": ""
    },
    {
      "stationTriplet": "334:NV:SNTL",
      "stationId": 334,
      "stateCode": "NV",
      "networkCode": "SNTL",
      "name": "Berry Creek",
      "dcoCode": "UT",
      "countyName": "White Pine",
      "huc": 160600081301,
      "elevation": 9350,
      "latitude": 39.31917,
      "longitude": -114.62278,
      "dataTimeZone": -8,
      "shefId": "BRCN2",
      "beginDate": "1980-10-01 00:00",
      "endDate": "2100-01-01 00:00",
      "pedonCode": ""
    },
    {
      "stationTriplet": "335:CO:SNTL",
      "stationId": 335,
      "stateCode": "CO",
      "networkCode": "SNTL",
      "name": "Berthoud Summit",
      "dcoCode": "CO",
      "countyName": "Grand",
      "huc": 140100010202,
      "elevation": 11300,
      "latitude": 39.80364,
      "longitude": -105.77786,
      "dataTimeZone": -8,
      "shefId": "BTSC2",
      "beginDate": "1963-09-01 00:00",
      "endDate": "2100-01-01 00:00",
      "pedonCode": ""
    },
    {
      "stationTriplet": "337:NV:SNTL",
      "stationId": 337,
      "stateCode": "NV",
      "networkCode": "SNTL",
      "name": "Big Creek Sum",
      "dcoCode": "UT",
      "countyName": "Lander",
      "huc": 160401070303,
      "elevation": 8710,
      "latitude": 39.29148,
      "longitude": -117.11506,
      "dataTimeZone": -8,
      "shefId": "BCSN2",
      "beginDate": "1980-10-01 00:00",
      "endDate": "2100-01-01 00:00",
      "pedonCode": ""
    },
    {
      "stationTriplet": "341:OR:SNTL",
      "stationId": 341,
      "stateCode": "OR",
      "networkCode": "SNTL",
      "name": "Big Red Mountain",
      "dcoCode": "OR",
      "countyName": "Jackson",
      "huc": 171003090301,
      "elevation": 6060,
      "latitude": 42.05257,
      "longitude": -122.85487,
      "dataTimeZone": -8,
      "shefId": "BRMO3",
      "beginDate": "1979-10-01 00:00",
      "endDate": "2100-01-01 00:00",
      "pedonCode": ""
    },
    {
      "stationTriplet": "342:WY:SNTL",
      "stationId": 342,
      "stateCode": "WY",
      "networkCode": "SNTL",
      "name": "Big Sandy Opening",
      "dcoCode": "ID",
      "countyName": "Sublette",
      "huc": 140401040101,
      "elevation": 9100,
      "latitude": 42.6458,
      "longitude": -109.25965,
      "dataTimeZone": -8,
      "shefId": "BGSW4",
      "beginDate": "1963-03-01 00:00",
      "endDate": "2100-01-01 00:00",
      "pedonCode": 69932
    },
    {
      "stationTriplet": "345:CO:SNTL",
      "stationId": 345,
      "stateCode": "CO",
      "networkCode": "SNTL",
      "name": "Bison Lake",
      "dcoCode": "CO",
      "countyName": "Garfield",
      "huc": 140100011401,
      "elevation": 10950,
      "latitude": 39.76458,
      "longitude": -107.35628,
      "dataTimeZone": -8,
      "shefId": "BLSC2",
      "beginDate": "1985-09-30 00:00",
      "endDate": "2100-01-01 00:00",
      "pedonCode": ""
    },
    {
      "stationTriplet": "352:WA:SNTL",
      "stationId": 352,
      "stateCode": "WA",
      "networkCode": "SNTL",
      "name": "Blewett Pass",
      "dcoCode": "OR",
      "countyName": "Chelan",
      "huc": 170200110501,
      "elevation": 4240,
      "latitude": 47.35037,
      "longitude": -120.6796,
      "dataTimeZone": -8,
      "shefId": "BPAW1",
      "beginDate": "1979-10-01 00:00",
      "endDate": "2100-01-01 00:00",
      "pedonCode": ""
    },
    {
      "stationTriplet": "353:WY:SNTL",
      "stationId": 353,
      "stateCode": "WY",
      "networkCode": "SNTL",
      "name": "Blind Bull Sum",
      "dcoCode": "ID",
      "countyName": "Sublette",
      "huc": 140401010402,
      "elevation": 8890,
      "latitude": 42.96413,
      "longitude": -110.60992,
      "dataTimeZone": -8,
      "shefId": "BBSW4",
      "beginDate": "1978-10-01 00:00",
      "endDate": "2100-01-01 00:00",
      "pedonCode": ""
    },
    {
      "stationTriplet": "354:SD:SNTL",
      "stationId": 354,
      "stateCode": "SD",
      "networkCode": "SNTL",
      "name": "Blind Park",
      "dcoCode": "MT",
      "countyName": "Pennington",
      "huc": 101201100104,
      "elevation": 6900,
      "latitude": 44.10772,
      "longitude": -103.97688,
      "dataTimeZone": -8,
      "shefId": "BLPS2",
      "beginDate": "1989-10-01 00:00",
      "endDate": "2100-01-01 00:00",
      "pedonCode": ""
    },
    {
      "stationTriplet": "361:OR:SNTL",
      "stationId": 361,
      "stateCode": "OR",
      "networkCode": "SNTL",
      "name": "Bourne",
      "dcoCode": "OR",
      "countyName": "Baker",
      "huc": 170502030101,
      "elevation": 5850,
      "latitude": 44.83052,
      "longitude": -118.18787,
      "dataTimeZone": -8,
      "shefId": "BORO3",
      "beginDate": "1978-10-01 00:00",
      "endDate": "2100-01-01 00:00",
      "pedonCode": 34783
    },
    {
      "stationTriplet": "363:MT:SNTL",
      "stationId": 363,
      "stateCode": "MT",
      "networkCode": "SNTL",
      "name": "Box Canyon",
      "dcoCode": "MT",
      "countyName": "Park",
      "huc": 100700020902,
      "elevation": 6720,
      "latitude": 45.27178,
      "longitude": -110.24899,
      "dataTimeZone": -8,
      "shefId": "BOXM8",
      "beginDate": "1976-10-01 00:00",
      "endDate": "2100-01-01 00:00",
      "pedonCode": ""
    },
    {
      "stationTriplet": "366:UT:SNTL",
      "stationId": 366,
      "stateCode": "UT",
      "networkCode": "SNTL",
      "name": "Brighton",
      "dcoCode": "UT",
      "countyName": "Salt Lake",
      "huc": 160202040201,
      "elevation": 8790,
      "latitude": 40.59936,
      "longitude": -111.58167,
      "dataTimeZone": -8,
      "shefId": "BRIU1",
      "beginDate": "1986-09-24 00:00",
      "endDate": "2100-01-01 00:00",
      "pedonCode": ""
    },
    {
      "stationTriplet": "367:WY:SNTL",
      "stationId": 367,
      "stateCode": "WY",
      "networkCode": "SNTL",
      "name": "Brooklyn Lake",
      "dcoCode": "CO",
      "countyName": "Albany",
      "huc": 101800100502,
      "elevation": 10250,
      "latitude": 41.36038,
      "longitude": -106.23038,
      "dataTimeZone": -8,
      "shefId": "BKLW4",
      "beginDate": "1962-10-01 00:00",
      "endDate": "2100-01-01 00:00",
      "pedonCode": ""
    },
    {
      "stationTriplet": "370:ID:SNTL",
      "stationId": 370,
      "stateCode": "ID",
      "networkCode": "SNTL",
      "name": "Brundage Reservoir",
      "dcoCode": "ID",
      "countyName": "Adams",
      "huc": 170602100104,
      "elevation": 6280,
      "latitude": 45.04315,
      "longitude": -116.13253,
      "dataTimeZone": -8,
      "shefId": "BRRI1",
      "beginDate": "1985-10-01 00:00",
      "endDate": "2100-01-01 00:00",
      "pedonCode": ""
    },
    {
      "stationTriplet": "373:NV:SNTL",
      "stationId": 373,
      "stateCode": "NV",
      "networkCode": "SNTL",
      "name": "Buckskin Lower",
      "dcoCode": "UT",
      "countyName": "Humboldt",
      "huc": 160401090502,
      "elevation": 6920,
      "latitude": 41.75067,
      "longitude": -117.53182,
      "dataTimeZone": -8,
      "shefId": "BKLN2",
      "beginDate": "1980-10-01 00:00",
      "endDate": "2100-01-01 00:00",
      "pedonCode": ""
    },
    {
      "stationTriplet": "378:CO:SNTL",
      "stationId": 378,
      "stateCode": "CO",
      "networkCode": "SNTL",
      "name": "Burro Mountain",
      "dcoCode": "CO",
      "countyName": "Rio Blanco",
      "huc": 140500050302,
      "elevation": 9290,
      "latitude": 39.87504,
      "longitude": -107.59902,
      "dataTimeZone": -8,
      "shefId": "BURC2",
      "beginDate": "1978-10-01 00:00",
      "endDate": "2100-01-01 00:00",
      "pedonCode": ""
    },
    {
      "stationTriplet": "384:WY:SNTL",
      "stationId": 384,
      "stateCode": "WY",
      "networkCode": "SNTL",
      "name": "Canyon",
      "dcoCode": "MT",
      "countyName": "Park",
      "huc": 100700010705,
      "elevation": 7870,
      "latitude": 44.71961,
      "longitude": -110.51084,
      "dataTimeZone": -8,
      "shefId": "CANW4",
      "beginDate": "1960-10-01 00:00",
      "endDate": "2100-01-01 00:00",
      "pedonCode": ""
    },
    {
      "stationTriplet": "385:MT:SNTL",
      "stationId": 385,
      "stateCode": "MT",
      "networkCode": "SNTL",
      "name": "Carrot Basin",
      "dcoCode": "MT",
      "countyName": "Gallatin",
      "huc": 100200080105,
      "elevation": 9200,
      "latitude": 44.96192,
      "longitude": -111.29403,
      "dataTimeZone": -8,
      "shefId": "CRRM8",
      "beginDate": "1966-10-01 00:00",
      "endDate": "2100-01-01 00:00",
      "pedonCode": ""
    },
    {
      "stationTriplet": "394:NM:SNTL",
      "stationId": 394,
      "stateCode": "NM",
      "networkCode": "SNTL",
      "name": "Chamita",
      "dcoCode": "CO",
      "countyName": "Rio Arriba",
      "huc": 130201020204,
      "elevation": 8370,
      "latitude": 36.95606,
      "longitude": -106.65723,
      "dataTimeZone": -8,
      "shefId": "CHAN5",
      "beginDate": "1978-10-01 00:00",
      "endDate": "2100-01-01 00:00",
      "pedonCode": ""
    },
    {
      "stationTriplet": "399:UT:SNTL",
      "stationId": 399,
      "stateCode": "UT",
      "networkCode": "SNTL",
      "name": "Clear Creek #1",
      "dcoCode": "UT",
      "countyName": "Utah",
      "huc": 160202020102,
      "elevation": 8960,
      "latitude": 39.86671,
      "longitude": -111.28363,
      "dataTimeZone": -8,
      "shefId": "CLCU1",
      "beginDate": "1978-01-01 00:00",
      "endDate": "2100-01-01 00:00",
      "pedonCode": ""
    },
    {
      "stationTriplet": "400:UT:SNTL",
      "stationId": 400,
      "stateCode": "UT",
      "networkCode": "SNTL",
      "name": "Clear Creek #2",
      "dcoCode": "UT",
      "countyName": "Utah",
      "huc": 160202020102,
      "elevation": 7850,
      "latitude": 39.89275,
      "longitude": -111.25154,
      "dataTimeZone": -8,
      "shefId": "CRKU1",
      "beginDate": "1978-10-01 00:00",
      "endDate": "2100-01-01 00:00",
      "pedonCode": ""
    },
    {
      "stationTriplet": "401:OR:SNTL",
      "stationId": 401,
      "stateCode": "OR",
      "networkCode": "SNTL",
      "name": "Clear Lake",
      "dcoCode": "OR",
      "countyName": "Wasco",
      "huc": 170703060901,
      "elevation": 3810,
      "latitude": 45.18832,
      "longitude": -121.6916,
      "dataTimeZone": -8,
      "shefId": "CLKO3",
      "beginDate": "1979-10-01 00:00",
      "endDate": "2100-01-01 00:00",
      "pedonCode": 17221
    },
    {
      "stationTriplet": "408:CO:SNTL",
      "stationId": 408,
      "stateCode": "CO",
      "networkCode": "SNTL",
      "name": "Columbine",
      "dcoCode": "CO",
      "countyName": "Jackson",
      "huc": 101800010102,
      "elevation": 9170,
      "latitude": 40.39591,
      "longitude": -106.60437,
      "dataTimeZone": -8,
      "shefId": "COLC2",
      "beginDate": "1978-10-01 00:00",
      "endDate": "2100-01-01 00:00",
      "pedonCode": ""
    },
    {
      "stationTriplet": "409:CO:SNTL",
      "stationId": 409,
      "stateCode": "CO",
      "networkCode": "SNTL",
      "name": "Columbine Pass",
      "dcoCode": "CO",
      "countyName": "Montrose",
      "huc": 140200050202,
      "elevation": 9160,
      "latitude": 38.41819,
      "longitude": -108.38313,
      "dataTimeZone": -8,
      "shefId": "CPSC2",
      "beginDate": "1985-10-01 00:00",
      "endDate": "2100-01-01 00:00",
      "pedonCode": ""
    },
    {
      "stationTriplet": "410:MT:SNTL",
      "stationId": 410,
      "stateCode": "MT",
      "networkCode": "SNTL",
      "name": "Combination",
      "dcoCode": "MT",
      "countyName": "Granite",
      "huc": 170102020401,
      "elevation": 5620,
      "latitude": 46.46523,
      "longitude": -113.39358,
      "dataTimeZone": -8,
      "shefId": "CMBM8",
      "beginDate": "1965-10-01 00:00",
      "endDate": "2100-01-01 00:00",
      "pedonCode": ""
    },
    {
      "stationTriplet": "412:CO:SNTL",
      "stationId": 412,
      "stateCode": "CO",
      "networkCode": "SNTL",
      "name": "Copeland Lake",
      "dcoCode": "CO",
      "countyName": "Boulder",
      "huc": 101900050202,
      "elevation": 8570,
      "latitude": 40.20733,
      "longitude": -105.5695,
      "dataTimeZone": -8,
      "shefId": "COPC2",
      "beginDate": "1979-10-01 00:00",
      "endDate": "2100-01-01 00:00",
      "pedonCode": ""
    },
    {
      "stationTriplet": "416:AZ:SNTL",
      "stationId": 416,
      "stateCode": "AZ",
      "networkCode": "SNTL",
      "name": "Coronado Trail",
      "dcoCode": "CO",
      "countyName": "Apache",
      "huc": 150400040501,
      "elevation": 8400,
      "latitude": 33.80418,
      "longitude": -109.15352,
      "dataTimeZone": -8,
      "shefId": "CNDA3",
      "beginDate": "1978-10-01 00:00",
      "endDate": "2100-01-01 00:00",
      "pedonCode": ""
    },
    {
      "stationTriplet": "422:OR:SNTL",
      "stationId": 422,
      "stateCode": "OR",
      "networkCode": "SNTL",
      "name": "County Line",
      "dcoCode": "OR",
      "countyName": "Umatilla",
      "huc": 170601040202,
      "elevation": 4840,
      "latitude": 45.19107,
      "longitude": -118.55015,
      "dataTimeZone": -8,
      "shefId": "COLO3",
      "beginDate": "1979-10-01 00:00",
      "endDate": "2100-01-01 00:00",
      "pedonCode": ""
    },
    {
      "stationTriplet": "425:ID:SNTL",
      "stationId": 425,
      "stateCode": "ID",
      "networkCode": "SNTL",
      "name": "Crater Meadows",
      "dcoCode": "ID",
      "countyName": "Clearwater",
      "huc": 170603070502,
      "elevation": 5960,
      "latitude": 46.56394,
      "longitude": -115.28903,
      "dataTimeZone": -8,
      "shefId": "CRAI1",
      "beginDate": "1983-10-01 00:00",
      "endDate": "2100-01-01 00:00",
      "pedonCode": ""
    },
    {
      "stationTriplet": "427:MT:SNTL",
      "stationId": 427,
      "stateCode": "MT",
      "networkCode": "SNTL",
      "name": "Crystal Lake",
      "dcoCode": "MT",
      "countyName": "Fergus",
      "huc": 100401030204,
      "elevation": 6130,
      "latitude": 46.78936,
      "longitude": -109.51202,
      "dataTimeZone": -8,
      "shefId": "CRYM8",
      "beginDate": "1967-09-01 00:00",
      "endDate": "2100-01-01 00:00",
      "pedonCode": ""
    },
    {
      "stationTriplet": "428:CA:SNTL",
      "stationId": 428,
      "stateCode": "CA",
      "networkCode": "SNTL",
      "name": "Css Lab",
      "dcoCode": "UT",
      "countyName": "Nevada",
      "huc": 180201250602,
      "elevation": 6880,
      "latitude": 39.32565,
      "longitude": -120.36807,
      "dataTimeZone": -8,
      "shefId": "CSSC1",
      "beginDate": "1980-10-01 00:00",
      "endDate": "2100-01-01 00:00",
      "pedonCode": ""
    },
    {
      "stationTriplet": "431:CO:SNTL",
      "stationId": 431,
      "stateCode": "CO",
      "networkCode": "SNTL",
      "name": "Cumbres Trestle",
      "dcoCode": "CO",
      "countyName": "Conejos",
      "huc": 130201020203,
      "elevation": 10030,
      "latitude": 37.01877,
      "longitude": -106.45275,
      "dataTimeZone": -8,
      "shefId": "CUMC2",
      "beginDate": "1979-10-01 00:00",
      "endDate": "2100-01-01 00:00",
      "pedonCode": ""
    },
    {
      "stationTriplet": "433:MT:SNTL",
      "stationId": 433,
      "stateCode": "MT",
      "networkCode": "SNTL",
      "name": "Daly Creek",
      "dcoCode": "MT",
      "countyName": "Ravalli",
      "huc": 170102050901,
      "elevation": 5780,
      "latitude": 46.18367,
      "longitude": -113.8533,
      "dataTimeZone": -8,
      "shefId": "DALM8",
      "beginDate": "1966-10-01 00:00",
      "endDate": "2100-01-01 00:00",
      "pedonCode": ""
    },
    {
      "stationTriplet": "434:OR:SNTL",
      "stationId": 434,
      "stateCode": "OR",
      "networkCode": "SNTL",
      "name": "Daly Lake",
      "dcoCode": "OR",
      "countyName": "Linn",
      "huc": 170900060101,
      "elevation": 3690,
      "latitude": 44.52147,
      "longitude": -122.08718,
      "dataTimeZone": -8,
      "shefId": "DALO3",
      "beginDate": "1978-10-01 00:00",
      "endDate": "2100-01-01 00:00",
      "pedonCode": ""
    },
    {
      "stationTriplet": "437:MT:SNTL",
      "stationId": 437,
      "stateCode": "MT",
      "networkCode": "SNTL",
      "name": "Deadman Creek",
      "dcoCode": "MT",
      "countyName": "Meagher",
      "huc": 100301030401,
      "elevation": 6440,
      "latitude": 46.79279,
      "longitude": -110.67545,
      "dataTimeZone": -8,
      "shefId": "DDMM8",
      "beginDate": "1966-10-01 00:00",
      "endDate": "2100-01-01 00:00",
      "pedonCode": ""
    },
    {
      "stationTriplet": "438:CO:SNTL",
      "stationId": 438,
      "stateCode": "CO",
      "networkCode": "SNTL",
      "name": "Deadman Hill",
      "dcoCode": "CO",
      "countyName": "Larimer",
      "huc": 101900070502,
      "elevation": 10240,
      "latitude": 40.80572,
      "longitude": -105.77018,
      "dataTimeZone": -8,
      "shefId": "DDMC2",
      "beginDate": "1978-10-01 00:00",
      "endDate": "2100-01-01 00:00",
      "pedonCode": ""
    },
    {
      "stationTriplet": "440:OR:SNTL",
      "stationId": 440,
      "stateCode": "OR",
      "networkCode": "SNTL",
      "name": "Derr.",
      "dcoCode": "OR",
      "countyName": "Wheeler",
      "huc": 170703040401,
      "elevation": 5850,
      "latitude": 44.4465,
      "longitude": -119.93012,
      "dataTimeZone": -8,
      "shefId": "DERO3",
      "beginDate": "1979-10-01 00:00",
      "endDate": "2100-01-01 00:00",
      "pedonCode": ""
    },
    {
      "stationTriplet": "443:NV:SNTL",
      "stationId": 443,
      "stateCode": "NV",
      "networkCode": "SNTL",
      "name": "Diamond Peak",
      "dcoCode": "UT",
      "countyName": "Eureka",
      "huc": 160600051503,
      "elevation": 8030,
      "latitude": 39.56361,
      "longitude": -115.84421,
      "dataTimeZone": -8,
      "shefId": "DPKN2",
      "beginDate": "1983-10-01 00:00",
      "endDate": "2100-01-01 00:00",
      "pedonCode": ""
    },
    {
      "stationTriplet": "445:NV:SNTL",
      "stationId": 445,
      "stateCode": "NV",
      "networkCode": "SNTL",
      "name": "Disaster Peak",
      "dcoCode": "UT",
      "countyName": "Humboldt",
      "huc": 160402010201,
      "elevation": 6260,
      "latitude": 41.96737,
      "longitude": -118.18934,
      "dataTimeZone": -8,
      "shefId": "DSPN2",
      "beginDate": "1980-10-01 00:00",
      "endDate": "2100-01-01 00:00",
      "pedonCode": 40632
    },
    {
      "stationTriplet": "446:CA:SNTL",
      "stationId": 446,
      "stateCode": "CA",
      "networkCode": "SNTL",
      "name": "Dismal Swamp",
      "dcoCode": "OR",
      "countyName": "Modoc",
      "huc": 171200070304,
      "elevation": 7370,
      "latitude": 41.99127,
      "longitude": -120.18033,
      "dataTimeZone": -8,
      "shefId": "DMLC1",
      "beginDate": "1979-10-01 00:00",
      "endDate": "2100-01-01 00:00",
      "pedonCode": ""
    },
    {
      "stationTriplet": "451:WY:SNTL",
      "stationId": 451,
      "stateCode": "WY",
      "networkCode": "SNTL",
      "name": "Dome Lake",
      "dcoCode": "MT",
      "countyName": "Sheridan",
      "huc": 100901010102,
      "elevation": 8890,
      "latitude": 44.57462,
      "longitude": -107.29537,
      "dataTimeZone": -8,
      "shefId": "DMLW4",
      "beginDate": "1978-10-01 00:00",
      "endDate": "2100-01-01 00:00",
      "pedonCode": ""
    },
    {
      "stationTriplet": "452:UT:SNTL",
      "stationId": 452,
      "stateCode": "UT",
      "networkCode": "SNTL",
      "name": "Donkey Reservoir",
      "dcoCode": "UT",
      "countyName": "Wayne",
      "huc": 140700030305,
      "elevation": 9800,
      "latitude": 38.2084,
      "longitude": -111.47412,
      "dataTimeZone": -8,
      "shefId": "DRSU1",
      "beginDate": "1985-10-01 00:00",
      "endDate": "2100-01-01 00:00",
      "pedonCode": ""
    },
    {
      "stationTriplet": "453:NV:SNTL",
      "stationId": 453,
      "stateCode": "NV",
      "networkCode": "SNTL",
      "name": "Dorsey Basin",
      "dcoCode": "UT",
      "countyName": "Elko",
      "huc": 160401010604,
      "elevation": 7900,
      "latitude": 40.89343,
      "longitude": -115.21104,
      "dataTimeZone": -8,
      "shefId": "DRBN2",
      "beginDate": "1978-10-01 00:00",
      "endDate": "2100-01-01 00:00",
      "pedonCode": ""
    },
    {
      "stationTriplet": "458:MT:SNTL",
      "stationId": 458,
      "stateCode": "MT",
      "networkCode": "SNTL",
      "name": "Dupuyer Creek",
      "dcoCode": "MT",
      "countyName": "Teton",
      "huc": 100302010501,
      "elevation": 5740,
      "latitude": 48.06341,
      "longitude": -112.7573,
      "dataTimeZone": -8,
      "shefId": "DPYM8",
      "beginDate": "1982-10-01 00:00",
      "endDate": "2100-01-01 00:00",
      "pedonCode": ""
    },
    {
      "stationTriplet": "460:WY:SNTL",
      "stationId": 460,
      "stateCode": "WY",
      "networkCode": "SNTL",
      "name": "East Rim Divide",
      "dcoCode": "ID",
      "countyName": "Sublette",
      "huc": 170401030203,
      "elevation": 8010,
      "latitude": 43.13097,
      "longitude": -110.2023,
      "dataTimeZone": -8,
      "shefId": "ERDW4",
      "beginDate": "1984-10-01 00:00",
      "endDate": "2100-01-01 00:00",
      "pedonCode": 55509
    },
    {
      "stationTriplet": "462:CA:SNTL",
      "stationId": 462,
      "stateCode": "CA",
      "networkCode": "SNTL",
      "name": "Ebbetts Pass",
      "dcoCode": "UT",
      "countyName": "Alpine",
      "huc": 160502010104,
      "elevation": 8660,
      "latitude": 38.5497,
      "longitude": -119.80468,
      "dataTimeZone": -8,
      "shefId": "EBTC1",
      "beginDate": "1978-10-01 00:00",
      "endDate": "2100-01-01 00:00",
      "pedonCode": ""
    },
    {
      "stationTriplet": "464:OR:SNTL",
      "stationId": 464,
      "stateCode": "OR",
      "networkCode": "SNTL",
      "name": "Eilertson Meadows",
      "dcoCode": "OR",
      "countyName": "Baker",
      "huc": 170502030404,
      "elevation": 5510,
      "latitude": 44.86887,
      "longitude": -118.11387,
      "dataTimeZone": -8,
      "shefId": "EIMO3",
      "beginDate": "1979-10-01 00:00",
      "endDate": "2100-01-01 00:00",
      "pedonCode": ""
    },
    {
      "stationTriplet": "470:OR:SNTL",
      "stationId": 470,
      "stateCode": "OR",
      "networkCode": "SNTL",
      "name": "Emigrant Springs",
      "dcoCode": "OR",
      "countyName": "Umatilla",
      "huc": 170701030501,
      "elevation": 3780,
      "latitude": 45.55808,
      "longitude": -118.45385,
      "dataTimeZone": -8,
      "shefId": "ESPO3",
      "beginDate": "1979-10-01 00:00",
      "endDate": "2100-01-01 00:00",
      "pedonCode": ""
    },
    {
      "stationTriplet": "475:UT:SNTL",
      "stationId": 475,
      "stateCode": "UT",
      "networkCode": "SNTL",
      "name": "Farnsworth Lake",
      "dcoCode": "UT",
      "countyName": "Sevier",
      "huc": 160300030405,
      "elevation": 9620,
      "latitude": 38.77246,
      "longitude": -111.67662,
      "dataTimeZone": -8,
      "shefId": "FRLU1",
      "beginDate": "1980-07-24 00:00",
      "endDate": "2100-01-01 00:00",
      "pedonCode": ""
    },
    {
      "stationTriplet": "476:NV:SNTL",
      "stationId": 476,
      "stateCode": "NV",
      "networkCode": "SNTL",
      "name": "Fawn Creek",
      "dcoCode": "UT",
      "countyName": "Elko",
      "huc": 170501040304,
      "elevation": 7040,
      "latitude": 41.82098,
      "longitude": -116.10153,
      "dataTimeZone": -8,
      "shefId": "FWCN2",
      "beginDate": "1980-10-01 00:00",
      "endDate": "2100-01-01 00:00",
      "pedonCode": ""
    },
    {
      "stationTriplet": "478:WA:SNTL",
      "stationId": 478,
      "stateCode": "WA",
      "networkCode": "SNTL",
      "name": "Fish Lake",
      "dcoCode": "OR",
      "countyName": "Kittitas",
      "huc": 170300010102,
      "elevation": 3430,
      "latitude": 47.53565,
      "longitude": -121.08553,
      "dataTimeZone": -8,
      "shefId": "FISW1",
      "beginDate": "1979-10-01 00:00",
      "endDate": "2100-01-01 00:00",
      "pedonCode": ""
    },
    {
      "stationTriplet": "481:UT:SNTL",
      "stationId": 481,
      "stateCode": "UT",
      "networkCode": "SNTL",
      "name": "Five Points Lake",
      "dcoCode": "UT",
      "countyName": "Duchesne",
      "huc": 140600030701,
      "elevation": 10920,
      "latitude": 40.71785,
      "longitude": -110.46721,
      "dataTimeZone": -8,
      "shefId": "FPLU1",
      "beginDate": "1980-08-14 00:00",
      "endDate": "2100-01-01 00:00",
      "pedonCode": ""
    },
    {
      "stationTriplet": "482:MT:SNTL",
      "stationId": 482,
      "stateCode": "MT",
      "networkCode": "SNTL",
      "name": "Flattop Mtn.",
      "dcoCode": "MT",
      "countyName": "Flathead",
      "huc": 170102070501,
      "elevation": 6290,
      "latitude": 48.80225,
      "longitude": -113.85713,
      "dataTimeZone": -8,
      "shefId": "FTMM8",
      "beginDate": "1969-10-01 00:00",
      "endDate": "2100-01-01 00:00",
      "pedonCode": ""
    },
    {
      "stationTriplet": "484:ID:SNTL",
      "stationId": 484,
      "stateCode": "ID",
      "networkCode": "SNTL",
      "name": "Franklin Basin",
      "dcoCode": "UT",
      "countyName": "Franklin",
      "huc": 160102020501,
      "elevation": 8140,
      "latitude": 42.0505,
      "longitude": -111.6012,
      "dataTimeZone": -8,
      "shefId": "FBNI1",
      "beginDate": "1978-10-01 00:00",
      "endDate": "2100-01-01 00:00",
      "pedonCode": 10752
    },
    {
      "stationTriplet": "486:NM:SNTL",
      "stationId": 486,
      "stateCode": "NM",
      "networkCode": "SNTL",
      "name": "Frisco Divide",
      "dcoCode": "CO",
      "countyName": "Catron",
      "huc": 150400040303,
      "elevation": 8010,
      "latitude": 33.73687,
      "longitude": -108.94327,
      "dataTimeZone": -8,
      "shefId": "FRDN5",
      "beginDate": "1971-10-01 00:00",
      "endDate": "2100-01-01 00:00",
      "pedonCode": ""
    },
    {
      "stationTriplet": "488:AZ:SNTL",
      "stationId": 488,
      "stateCode": "AZ",
      "networkCode": "SNTL",
      "name": "Fry",
      "dcoCode": "CO",
      "countyName": "Coconino",
      "huc": 150602020501,
      "elevation": 7220,
      "latitude": 35.07356,
      "longitude": -111.84477,
      "dataTimeZone": -8,
      "shefId": "FRYA3",
      "beginDate": "1978-10-01 00:00",
      "endDate": "2100-01-01 00:00",
      "pedonCode": ""
    },
    {
      "stationTriplet": "489:ID:SNTL",
      "stationId": 489,
      "stateCode": "ID",
      "networkCode": "SNTL",
      "name": "Galena",
      "dcoCode": "ID",
      "countyName": "Blaine",
      "huc": 170402190101,
      "elevation": 7470,
      "latitude": 43.87722,
      "longitude": -114.6725,
      "dataTimeZone": -8,
      "shefId": "GLNI1",
      "beginDate": "1979-10-01 00:00",
      "endDate": "2100-01-01 00:00",
      "pedonCode": ""
    },
    {
      "stationTriplet": "491:NM:SNTL",
      "stationId": 491,
      "stateCode": "NM",
      "networkCode": "SNTL",
      "name": "Gallegos Peak",
      "dcoCode": "CO",
      "countyName": "Taos",
      "huc": 130201010502,
      "elevation": 9460,
      "latitude": 36.19418,
      "longitude": -105.55742,
      "dataTimeZone": -8,
      "shefId": "GLGN5",
      "beginDate": "1979-10-01 00:00",
      "endDate": "2100-01-01 00:00",
      "pedonCode": ""
    },
    {
      "stationTriplet": "918:MT:SNTL",
      "stationId": 918,
      "stateCode": "MT",
      "networkCode": "SNTL",
      "name": "Garver Creek",
      "dcoCode": "MT",
      "countyName": "Lincoln",
      "huc": 170101030202,
      "elevation": 4250,
      "latitude": 48.97523,
      "longitude": -115.81915,
      "dataTimeZone": -8,
      "shefId": "GVRM8",
      "beginDate": "1968-10-01 00:00",
      "endDate": "2100-01-01 00:00",
      "pedonCode": ""
    },
    {
      "stationTriplet": "493:ID:SNTL",
      "stationId": 493,
      "stateCode": "ID",
      "networkCode": "SNTL",
      "name": "Giveout",
      "dcoCode": "ID",
      "countyName": "Bear Lake",
      "huc": 160102010401,
      "elevation": 6940,
      "latitude": 42.4132,
      "longitude": -111.1663,
      "dataTimeZone": -8,
      "shefId": "GIVI1",
      "beginDate": "1979-10-01 00:00",
      "endDate": "2100-01-01 00:00",
      "pedonCode": ""
    },
    {
      "stationTriplet": "495:UT:SNTL",
      "stationId": 495,
      "stateCode": "UT",
      "networkCode": "SNTL",
      "name": "Gooseberry RS",
      "dcoCode": "UT",
      "countyName": "Sevier",
      "huc": 160300030405,
      "elevation": 7930,
      "latitude": 38.80034,
      "longitude": -111.68333,
      "dataTimeZone": -8,
      "shefId": "GOOU1",
      "beginDate": "1979-06-27 00:00",
      "endDate": "2100-01-01 00:00",
      "pedonCode": 10761
    },
    {
      "stationTriplet": "496:ID:SNTL",
      "stationId": 496,
      "stateCode": "ID",
      "networkCode": "SNTL",
      "name": "Graham Guard Sta.",
      "dcoCode": "ID",
      "countyName": "Elmore",
      "huc": 170501110303,
      "elevation": 5680,
      "latitude": 43.9538,
      "longitude": -115.27387,
      "dataTimeZone": -8,
      "shefId": "GGSI1",
      "beginDate": "1978-10-01 00:00",
      "endDate": "2100-01-01 00:00",
      "pedonCode": ""
    },
    {
      "stationTriplet": "497:WY:SNTL",
      "stationId": 497,
      "stateCode": "WY",
      "networkCode": "SNTL",
      "name": "Granite Creek",
      "dcoCode": "ID",
      "countyName": "Teton",
      "huc": 170401030304,
      "elevation": 6770,
      "latitude": 43.34298,
      "longitude": -110.43495,
      "dataTimeZone": -8,
      "shefId": "GRCW4",
      "beginDate": "1987-10-01 00:00",
      "endDate": "2100-01-01 00:00",
      "pedonCode": 71940
    },
    {
      "stationTriplet": "500:MT:SNTL",
      "stationId": 500,
      "stateCode": "MT",
      "networkCode": "SNTL",
      "name": "Grave Creek",
      "dcoCode": "MT",
      "countyName": "Flathead",
      "huc": 170101010801,
      "elevation": 4350,
      "latitude": 48.91453,
      "longitude": -114.76663,
      "dataTimeZone": -8,
      "shefId": "GRCM8",
      "beginDate": "1968-10-01 00:00",
      "endDate": "2100-01-01 00:00",
      "pedonCode": ""
    },
    {
      "stationTriplet": "503:NV:SNTL",
      "stationId": 503,
      "stateCode": "NV",
      "networkCode": "SNTL",
      "name": "Green Mountain",
      "dcoCode": "UT",
      "countyName": "Elko",
      "huc": 160401030401,
      "elevation": 8180,
      "latitude": 40.3848,
      "longitude": -115.52757,
      "dataTimeZone": -8,
      "shefId": "GRMN2",
      "beginDate": "1980-10-01 00:00",
      "endDate": "2100-01-01 00:00",
      "pedonCode": 18455
    },
    {
      "stationTriplet": "507:WA:SNTL",
      "stationId": 507,
      "stateCode": "WA",
      "networkCode": "SNTL",
      "name": "Grouse Camp",
      "dcoCode": "OR",
      "countyName": "Kittitas",
      "huc": 170300010401,
      "elevation": 5390,
      "latitude": 47.28107,
      "longitude": -120.48771,
      "dataTimeZone": -8,
      "shefId": "GRCW1",
      "beginDate": "1979-10-01 00:00",
      "endDate": "2100-01-01 00:00",
      "pedonCode": 32032
    },
    {
      "stationTriplet": "510:MT:SNTL",
      "stationId": 510,
      "stateCode": "MT",
      "networkCode": "SNTL",
      "name": "Hand Creek",
      "dcoCode": "MT",
      "countyName": "Flathead",
      "huc": 170102100304,
      "elevation": 5040,
      "latitude": 48.30754,
      "longitude": -114.84075,
      "dataTimeZone": -8,
      "shefId": "HANM8",
      "beginDate": "1976-10-01 00:00",
      "endDate": "2100-01-01 00:00",
      "pedonCode": ""
    },
    {
      "stationTriplet": "511:AZ:SNTL",
      "stationId": 511,
      "stateCode": "AZ",
      "networkCode": "SNTL",
      "name": "Hannagan Meadows",
      "dcoCode": "CO",
      "countyName": "Greenlee",
      "huc": 150601010107,
      "elevation": 9030,
      "latitude": 33.65352,
      "longitude": -109.30877,
      "dataTimeZone": -8,
      "shefId": "HNMA3",
      "beginDate": "1956-10-01 00:00",
      "endDate": "2100-01-01 00:00",
      "pedonCode": ""
    },
    {
      "stationTriplet": "515:WA:SNTL",
      "stationId": 515,
      "stateCode": "WA",
      "networkCode": "SNTL",
      "name": "Harts Pass",
      "dcoCode": "OR",
      "countyName": "Okanogan",
      "huc": 171100050501,
      "elevation": 6490,
      "latitude": 48.72047,
      "longitude": -120.6586,
      "dataTimeZone": -8,
      "shefId": "HRPW1",
      "beginDate": "1979-10-01 00:00",
      "endDate": "2100-01-01 00:00",
      "pedonCode": 30552
    },
    {
      "stationTriplet": "516:MT:SNTL",
      "stationId": 516,
      "stateCode": "MT",
      "networkCode": "SNTL",
      "name": "Hawkins Lake",
      "dcoCode": "MT",
      "countyName": "Lincoln",
      "huc": 170101050201,
      "elevation": 6460,
      "latitude": 48.9724,
      "longitude": -115.95344,
      "dataTimeZone": -8,
      "shefId": "HAWM8",
      "beginDate": "1968-10-01 00:00",
      "endDate": "2100-01-01 00:00",
      "pedonCode": ""
    },
    {
      "stationTriplet": "517:UT:SNTL",
      "stationId": 517,
      "stateCode": "UT",
      "networkCode": "SNTL",
      "name": "Hayden Fork",
      "dcoCode": "UT",
      "countyName": "Summit",
      "huc": 160101010101,
      "elevation": 9160,
      "latitude": 40.79669,
      "longitude": -110.88472,
      "dataTimeZone": -8,
      "shefId": "HFKU1",
      "beginDate": "1978-10-01 00:00",
      "endDate": "2100-01-01 00:00",
      "pedonCode": ""
    },
    {
      "stationTriplet": "518:CA:SNTL",
      "stationId": 518,
      "stateCode": "CA",
      "networkCode": "SNTL",
      "name": "Heavenly Valley",
      "dcoCode": "UT",
      "countyName": "El Dorado",
      "huc": 160501010302,
      "elevation": 8540,
      "latitude": 38.92431,
      "longitude": -119.91641,
      "dataTimeZone": -8,
      "shefId": "HVNC1",
      "beginDate": "1978-10-01 00:00",
      "endDate": "2100-01-01 00:00",
      "pedonCode": 32237
    },
    {
      "stationTriplet": "519:AZ:SNTL",
      "stationId": 519,
      "stateCode": "AZ",
      "networkCode": "SNTL",
      "name": "Heber",
      "dcoCode": "CO",
      "countyName": "Coconino",
      "huc": 150200100201,
      "elevation": 7650,
      "latitude": 34.31254,
      "longitude": -110.75433,
      "dataTimeZone": -8,
      "shefId": "HBEA3",
      "beginDate": "1953-10-01 00:00",
      "endDate": "2100-01-01 00:00",
      "pedonCode": ""
    },
    {
      "stationTriplet": "521:UT:SNTL",
      "stationId": 521,
      "stateCode": "UT",
      "networkCode": "SNTL",
      "name": "Hewinta",
      "dcoCode": "UT",
      "countyName": "Summit",
      "huc": 140401070203,
      "elevation": 9510,
      "latitude": 40.95009,
      "longitude": -110.48419,
      "dataTimeZone": -8,
      "shefId": "HEWU1",
      "beginDate": "1985-09-19 00:00",
      "endDate": "2100-01-01 00:00",
      "pedonCode": ""
    },
    {
      "stationTriplet": "523:OR:SNTL",
      "stationId": 523,
      "stateCode": "OR",
      "networkCode": "SNTL",
      "name": "High Ridge",
      "dcoCode": "OR",
      "countyName": "Umatilla",
      "huc": 170701030103,
      "elevation": 4900,
      "latitude": 45.69682,
      "longitude": -118.10657,
      "dataTimeZone": -8,
      "shefId": "HIRO3",
      "beginDate": "1978-10-01 00:00",
      "endDate": "2100-01-01 00:00",
      "pedonCode": 31333
    },
    {
      "stationTriplet": "526:OR:SNTL",
      "stationId": 526,
      "stateCode": "OR",
      "networkCode": "SNTL",
      "name": "Hogg Pass",
      "dcoCode": "OR",
      "countyName": "Linn",
      "huc": 170900040201,
      "elevation": 4800,
      "latitude": 44.42042,
      "longitude": -121.85655,
      "dataTimeZone": -8,
      "shefId": "HOPO3",
      "beginDate": "1978-10-01 00:00",
      "endDate": "2100-01-01 00:00",
      "pedonCode": ""
    },
    {
      "stationTriplet": "528:UT:SNTL",
      "stationId": 528,
      "stateCode": "UT",
      "networkCode": "SNTL",
      "name": "Hole-in-Rock",
      "dcoCode": "UT",
      "countyName": "Summit",
      "huc": 140401060205,
      "elevation": 9170,
      "latitude": 40.92167,
      "longitude": -110.18623,
      "dataTimeZone": -8,
      "shefId": "HIRU1",
      "beginDate": "1985-09-18 00:00",
      "endDate": "2100-01-01 00:00",
      "pedonCode": ""
    },
    {
      "stationTriplet": "530:MT:SNTL",
      "stationId": 530,
      "stateCode": "MT",
      "networkCode": "SNTL",
      "name": "Hoodoo Basin",
      "dcoCode": "MT",
      "countyName": "Mineral",
      "huc": 170102040607,
      "elevation": 6060,
      "latitude": 46.97511,
      "longitude": -115.03486,
      "dataTimeZone": -8,
      "shefId": "HOOM8",
      "beginDate": "1966-10-01 00:00",
      "endDate": "2100-01-01 00:00",
      "pedonCode": ""
    },
    {
      "stationTriplet": "531:CO:SNTL",
      "stationId": 531,
      "stateCode": "CO",
      "networkCode": "SNTL",
      "name": "Hoosier Pass",
      "dcoCode": "CO",
      "countyName": "Summit",
      "huc": 101900010102,
      "elevation": 11600,
      "latitude": 39.36092,
      "longitude": -106.05999,
      "dataTimeZone": -8,
      "shefId": "HOOC2",
      "beginDate": "1979-10-01 00:00",
      "endDate": "2100-01-01 00:00",
      "pedonCode": ""
    },
    {
      "stationTriplet": "534:ID:SNTL",
      "stationId": 534,
      "stateCode": "ID",
      "networkCode": "SNTL",
      "name": "Howell Canyon",
      "dcoCode": "ID",
      "countyName": "Cassia",
      "huc": 170402090602,
      "elevation": 8010,
      "latitude": 42.32029,
      "longitude": -113.61587,
      "dataTimeZone": -8,
      "shefId": "HWCI1",
      "beginDate": "1978-10-01 00:00",
      "endDate": "2100-01-01 00:00",
      "pedonCode": ""
    },
    {
      "stationTriplet": "544:WY:SNTL",
      "stationId": 544,
      "stateCode": "WY",
      "networkCode": "SNTL",
      "name": "Indian Creek",
      "dcoCode": "ID",
      "countyName": "Lincoln",
      "huc": 140401070502,
      "elevation": 9400,
      "latitude": 42.30023,
      "longitude": -110.67753,
      "dataTimeZone": -8,
      "shefId": "INCW4",
      "beginDate": "1979-10-01 00:00",
      "endDate": "2100-01-01 00:00",
      "pedonCode": ""
    },
    {
      "stationTriplet": "550:ID:SNTL",
      "stationId": 550,
      "stateCode": "ID",
      "networkCode": "SNTL",
      "name": "Jackson Peak",
      "dcoCode": "ID",
      "countyName": "Boise",
      "huc": 170501200304,
      "elevation": 7060,
      "latitude": 44.05092,
      "longitude": -115.44322,
      "dataTimeZone": -8,
      "shefId": "JKPI1",
      "beginDate": "1979-10-01 00:00",
      "endDate": "2100-01-01 00:00",
      "pedonCode": 25396
    },
    {
      "stationTriplet": "551:CO:SNTL",
      "stationId": 551,
      "stateCode": "CO",
      "networkCode": "SNTL",
      "name": "Joe Wright",
      "dcoCode": "CO",
      "countyName": "Larimer",
      "huc": 101900070204,
      "elevation": 10140,
      "latitude": 40.53285,
      "longitude": -105.88747,
      "dataTimeZone": -8,
      "shefId": "JWRC2",
      "beginDate": "1978-10-01 00:00",
      "endDate": "2100-01-01 00:00",
      "pedonCode": ""
    },
    {
      "stationTriplet": "556:CO:SNTL",
      "stationId": 556,
      "stateCode": "CO",
      "networkCode": "SNTL",
      "name": "Kiln",
      "dcoCode": "CO",
      "countyName": "Pitkin",
      "huc": 140100040504,
      "elevation": 9610,
      "latitude": 39.3172,
      "longitude": -106.61501,
      "dataTimeZone": -8,
      "shefId": "KLNC2",
      "beginDate": "1979-10-01 00:00",
      "endDate": "2100-01-01 00:00",
      "pedonCode": ""
    },
    {
      "stationTriplet": "558:OR:SNTL",
      "stationId": 558,
      "stateCode": "OR",
      "networkCode": "SNTL",
      "name": "King Mountain",
      "dcoCode": "OR",
      "countyName": "Jackson",
      "huc": 171003020701,
      "elevation": 4330,
      "latitude": 42.72395,
      "longitude": -123.20037,
      "dataTimeZone": -8,
      "shefId": "KIMO3",
      "beginDate": "1979-10-01 00:00",
      "endDate": "2100-01-01 00:00",
      "pedonCode": ""
    },
    {
      "stationTriplet": "559:UT:SNTL",
      "stationId": 559,
      "stateCode": "UT",
      "networkCode": "SNTL",
      "name": "Kings Cabin",
      "dcoCode": "UT",
      "countyName": "Uintah",
      "huc": 140600100303,
      "elevation": 8740,
      "latitude": 40.71632,
      "longitude": -109.54401,
      "dataTimeZone": -8,
      "shefId": "KGCU1",
      "beginDate": "1978-10-01 00:00",
      "endDate": "2100-01-01 00:00",
      "pedonCode": ""
    },
    {
      "stationTriplet": "560:WY:SNTL",
      "stationId": 560,
      "stateCode": "WY",
      "networkCode": "SNTL",
      "name": "Kirwin",
      "dcoCode": "MT",
      "countyName": "Park",
      "huc": 100800090101,
      "elevation": 9580,
      "latitude": 43.86067,
      "longitude": -109.32163,
      "dataTimeZone": -8,
      "shefId": "KRWW4",
      "beginDate": "1979-10-01 00:00",
      "endDate": "2100-01-01 00:00",
      "pedonCode": ""
    },
    {
      "stationTriplet": "562:MT:SNTL",
      "stationId": 562,
      "stateCode": "MT",
      "networkCode": "SNTL",
      "name": "Kraft Creek",
      "dcoCode": "MT",
      "countyName": "Missoula",
      "huc": 170102110104,
      "elevation": 4760,
      "latitude": 47.42749,
      "longitude": -113.77515,
      "dataTimeZone": -8,
      "shefId": "KRCM8",
      "beginDate": "1979-10-01 00:00",
      "endDate": "2100-01-01 00:00",
      "pedonCode": ""
    },
    {
      "stationTriplet": "513:UT:SNTL",
      "stationId": 513,
      "stateCode": "UT",
      "networkCode": "SNTL",
      "name": "Lakefork Basin",
      "dcoCode": "UT",
      "countyName": "Duchesne",
      "huc": 140600030601,
      "elevation": 10890,
      "latitude": 40.73785,
      "longitude": -110.62121,
      "dataTimeZone": -8,
      "shefId": "LBNU1",
      "beginDate": "1982-10-01 00:00",
      "endDate": "2100-01-01 00:00",
      "pedonCode": ""
    },
    {
      "stationTriplet": "568:MT:SNTL",
      "stationId": 568,
      "stateCode": "MT",
      "networkCode": "SNTL",
      "name": "Lakeview Ridge",
      "dcoCode": "MT",
      "countyName": "Beaverhead",
      "huc": 100200010105,
      "elevation": 7340,
      "latitude": 44.58907,
      "longitude": -111.82498,
      "dataTimeZone": -8,
      "shefId": "LVRM8",
      "beginDate": "1960-10-01 00:00",
      "endDate": "2100-01-01 00:00",
      "pedonCode": 40625
    },
    {
      "stationTriplet": "569:NV:SNTL",
      "stationId": 569,
      "stateCode": "NV",
      "networkCode": "SNTL",
      "name": "Lamance Creek",
      "dcoCode": "UT",
      "countyName": "Humboldt",
      "huc": 160401090603,
      "elevation": 6390,
      "latitude": 41.51542,
      "longitude": -117.63197,
      "dataTimeZone": -8,
      "shefId": "LMCN2",
      "beginDate": "1980-10-01 00:00",
      "endDate": "2100-01-01 00:00",
      "pedonCode": ""
    },
    {
      "stationTriplet": "573:NV:SNTL",
      "stationId": 573,
      "stateCode": "NV",
      "networkCode": "SNTL",
      "name": "Laurel Draw",
      "dcoCode": "UT",
      "countyName": "Elko",
      "huc": 170501040202,
      "elevation": 6680,
      "latitude": 41.77637,
      "longitude": -116.02957,
      "dataTimeZone": -8,
      "shefId": "LADN2",
      "beginDate": "1979-10-01 00:00",
      "endDate": "2100-01-01 00:00",
      "pedonCode": ""
    },
    {
      "stationTriplet": "575:CA:SNTL",
      "stationId": 575,
      "stateCode": "CA",
      "networkCode": "SNTL",
      "name": "Leavitt Meadows",
      "dcoCode": "UT",
      "countyName": "Mono",
      "huc": 160503020104,
      "elevation": 7200,
      "latitude": 38.30367,
      "longitude": -119.55111,
      "dataTimeZone": -8,
      "shefId": "LVTC1",
      "beginDate": "1980-10-01 00:00",
      "endDate": "2100-01-01 00:00",
      "pedonCode": ""
    },
    {
      "stationTriplet": "576:MT:SNTL",
      "stationId": 576,
      "stateCode": "MT",
      "networkCode": "SNTL",
      "name": "Lemhi Ridge",
      "dcoCode": "MT",
      "countyName": "Beaverhead",
      "huc": 100200011106,
      "elevation": 8080,
      "latitude": 44.9938,
      "longitude": -113.44399,
      "dataTimeZone": -8,
      "shefId": "LMHM8",
      "beginDate": "1971-01-01 00:00",
      "endDate": "2100-01-01 00:00",
      "pedonCode": ""
    },
    {
      "stationTriplet": "577:WY:SNTL",
      "stationId": 577,
      "stateCode": "WY",
      "networkCode": "SNTL",
      "name": "Lewis Lake Divide",
      "dcoCode": "ID",
      "countyName": "Teton",
      "huc": 170401010104,
      "elevation": 7880,
      "latitude": 44.20862,
      "longitude": -110.66628,
      "dataTimeZone": -8,
      "shefId": "LWSW4",
      "beginDate": "1963-09-01 00:00",
      "endDate": "2100-01-01 00:00",
      "pedonCode": 71939
    },
    {
      "stationTriplet": "578:MT:SNTL",
      "stationId": 578,
      "stateCode": "MT",
      "networkCode": "SNTL",
      "name": "Lick Creek",
      "dcoCode": "MT",
      "countyName": "Gallatin",
      "huc": 100200081001,
      "elevation": 6880,
      "latitude": 45.5041,
      "longitude": -110.96625,
      "dataTimeZone": -8,
      "shefId": "LCKM8",
      "beginDate": "1963-10-01 00:00",
      "endDate": "2100-01-01 00:00",
      "pedonCode": 39518
    },
    {
      "stationTriplet": "580:CO:SNTL",
      "stationId": 580,
      "stateCode": "CO",
      "networkCode": "SNTL",
      "name": "Lily Pond",
      "dcoCode": "CO",
      "countyName": "Conejos",
      "huc": 130100020302,
      "elevation": 11060,
      "latitude": 37.38028,
      "longitude": -106.54823,
      "dataTimeZone": -8,
      "shefId": "LPDC2",
      "beginDate": "1979-10-01 00:00",
      "endDate": "2100-01-01 00:00",
      "pedonCode": ""
    },
    {
      "stationTriplet": "584:OR:SNTL",
      "stationId": 584,
      "stateCode": "OR",
      "networkCode": "SNTL",
      "name": "Little Meadows",
      "dcoCode": "OR",
      "countyName": "Linn",
      "huc": 170900060301,
      "elevation": 4020,
      "latitude": 44.61297,
      "longitude": -122.22565,
      "dataTimeZone": -8,
      "shefId": "LMDO3",
      "beginDate": "1978-10-01 00:00",
      "endDate": "2100-01-01 00:00",
      "pedonCode": ""
    },
    {
      "stationTriplet": "585:WY:SNTL",
      "stationId": 585,
      "stateCode": "WY",
      "networkCode": "SNTL",
      "name": "Little Warm",
      "dcoCode": "MT",
      "countyName": "Fremont",
      "huc": 100800010212,
      "elevation": 9370,
      "latitude": 43.50278,
      "longitude": -109.752,
      "dataTimeZone": -8,
      "shefId": "LTWW4",
      "beginDate": "1978-10-01 00:00",
      "endDate": "2100-01-01 00:00",
      "pedonCode": ""
    },
    {
      "stationTriplet": "591:WA:SNTL",
      "stationId": 591,
      "stateCode": "WA",
      "networkCode": "SNTL",
      "name": "Lone Pine",
      "dcoCode": "OR",
      "countyName": "Skamania",
      "huc": 170800020203,
      "elevation": 3940,
      "latitude": 46.27143,
      "longitude": -121.96288,
      "dataTimeZone": -8,
      "shefId": "LPSW1",
      "beginDate": "1978-10-01 00:00",
      "endDate": "2100-01-01 00:00",
      "pedonCode": ""
    },
    {
      "stationTriplet": "592:UT:SNTL",
      "stationId": 592,
      "stateCode": "UT",
      "networkCode": "SNTL",
      "name": "Long Flat",
      "dcoCode": "UT",
      "countyName": "Washington",
      "huc": 160300061403,
      "elevation": 7990,
      "latitude": 37.51255,
      "longitude": -113.39661,
      "dataTimeZone": -8,
      "shefId": "LGFU1",
      "beginDate": "1979-09-09 00:00",
      "endDate": "2100-01-01 00:00",
      "pedonCode": ""
    },
    {
      "stationTriplet": "594:ID:SNTL",
      "stationId": 594,
      "stateCode": "ID",
      "networkCode": "SNTL",
      "name": "Lookout",
      "dcoCode": "ID",
      "countyName": "Shoshone",
      "huc": 170103020101,
      "elevation": 5180,
      "latitude": 47.45749,
      "longitude": -115.70457,
      "dataTimeZone": -8,
      "shefId": "LKTI1",
      "beginDate": "1978-10-01 00:00",
      "endDate": "2100-01-01 00:00",
      "pedonCode": ""
    },
    {
      "stationTriplet": "599:WA:SNTL",
      "stationId": 599,
      "stateCode": "WA",
      "networkCode": "SNTL",
      "name": "Lost Horse",
      "dcoCode": "OR",
      "countyName": "Yakima",
      "huc": 170300030302,
      "elevation": 5100,
      "latitude": 46.35754,
      "longitude": -121.0809,
      "dataTimeZone": -8,
      "shefId": "LOHW1",
      "beginDate": "1989-10-01 00:00",
      "endDate": "2100-01-01 00:00",
      "pedonCode": 32033
    },
    {
      "stationTriplet": "606:WA:SNTL",
      "stationId": 606,
      "stateCode": "WA",
      "networkCode": "SNTL",
      "name": "Lyman Lake",
      "dcoCode": "OR",
      "countyName": "Chelan",
      "huc": 170200090203,
      "elevation": 5990,
      "latitude": 48.19798,
      "longitude": -120.91678,
      "dataTimeZone": -8,
      "shefId": "LYLW1",
      "beginDate": "1978-10-01 00:00",
      "endDate": "2100-01-01 00:00",
      "pedonCode": ""
    },
    {
      "stationTriplet": "609:MT:SNTL",
      "stationId": 609,
      "stateCode": "MT",
      "networkCode": "SNTL",
      "name": "Madison Plateau",
      "dcoCode": "MT",
      "countyName": "Gallatin",
      "huc": 100200070204,
      "elevation": 7710,
      "latitude": 44.58623,
      "longitude": -111.11627,
      "dataTimeZone": -8,
      "shefId": "MPLM8",
      "beginDate": "1967-10-01 00:00",
      "endDate": "2100-01-01 00:00",
      "pedonCode": ""
    },
    {
      "stationTriplet": "612:UT:SNTL",
      "stationId": 612,
      "stateCode": "UT",
      "networkCode": "SNTL",
      "name": "Mammoth-Cottonwood",
      "dcoCode": "UT",
      "countyName": "Sanpete",
      "huc": 160300040203,
      "elevation": 8710,
      "latitude": 39.68338,
      "longitude": -111.31818,
      "dataTimeZone": -8,
      "shefId": "MCDU1",
      "beginDate": "1978-10-01 00:00",
      "endDate": "2100-01-01 00:00",
      "pedonCode": ""
    },
    {
      "stationTriplet": "613:MT:SNTL",
      "stationId": 613,
      "stateCode": "MT",
      "networkCode": "SNTL",
      "name": "Many Glacier",
      "dcoCode": "MT",
      "countyName": "Glacier",
      "huc": "090400010201",
      "elevation": 4930,
      "latitude": 48.79698,
      "longitude": -113.6705,
      "dataTimeZone": -8,
      "shefId": "MANM8",
      "beginDate": "1976-10-01 00:00",
      "endDate": "2100-01-01 00:00",
      "pedonCode": ""
    },
    {
      "stationTriplet": "615:NV:SNTL",
      "stationId": 615,
      "stateCode": "NV",
      "networkCode": "SNTL",
      "name": "Marlette Lake",
      "dcoCode": "UT",
      "countyName": "Carson City",
      "huc": 160501010201,
      "elevation": 7860,
      "latitude": 39.16395,
      "longitude": -119.89672,
      "dataTimeZone": -8,
      "shefId": "MRLN2",
      "beginDate": "1978-10-01 00:00",
      "endDate": "2100-01-01 00:00",
      "pedonCode": 32234
    },
    {
      "stationTriplet": "618:CO:SNTL",
      "stationId": 618,
      "stateCode": "CO",
      "networkCode": "SNTL",
      "name": "Mc Clure Pass",
      "dcoCode": "CO",
      "countyName": "Gunnison",
      "huc": 140200040203,
      "elevation": 8760,
      "latitude": 39.12899,
      "longitude": -107.28834,
      "dataTimeZone": -8,
      "shefId": "MCPC2",
      "beginDate": "1979-10-01 00:00",
      "endDate": "2100-01-01 00:00",
      "pedonCode": ""
    },
    {
      "stationTriplet": "620:ID:SNTL",
      "stationId": 620,
      "stateCode": "ID",
      "networkCode": "SNTL",
      "name": "Meadow Lake",
      "dcoCode": "ID",
      "countyName": "Lemhi",
      "huc": 170602040101,
      "elevation": 9190,
      "latitude": 44.43655,
      "longitude": -113.31815,
      "dataTimeZone": -8,
      "shefId": "MDLI1",
      "beginDate": "1979-10-01 00:00",
      "endDate": "2100-01-01 00:00",
      "pedonCode": ""
    },
    {
      "stationTriplet": "637:ID:SNTL",
      "stationId": 637,
      "stateCode": "ID",
      "networkCode": "SNTL",
      "name": "Mores Creek Summit",
      "dcoCode": "ID",
      "countyName": "Boise",
      "huc": 170501110503,
      "elevation": 6090,
      "latitude": 43.932,
      "longitude": -115.66588,
      "dataTimeZone": -8,
      "shefId": "MRKI1",
      "beginDate": "1978-09-30 00:00",
      "endDate": "2100-01-01 00:00",
      "pedonCode": ""
    },
    {
      "stationTriplet": "639:ID:SNTL",
      "stationId": 639,
      "stateCode": "ID",
      "networkCode": "SNTL",
      "name": "Morgan Creek",
      "dcoCode": "ID",
      "countyName": "Lemhi",
      "huc": 170602030901,
      "elevation": 7620,
      "latitude": 44.84237,
      "longitude": -114.26871,
      "dataTimeZone": -8,
      "shefId": "MRGI1",
      "beginDate": "1979-10-01 00:00",
      "endDate": "2100-01-01 00:00",
      "pedonCode": ""
    },
    {
      "stationTriplet": "640:AZ:SNTL",
      "stationId": 640,
      "stateCode": "AZ",
      "networkCode": "SNTL",
      "name": "Mormon Mountain",
      "dcoCode": "CO",
      "countyName": "Coconino",
      "huc": 150200150201,
      "elevation": 7490,
      "latitude": 34.94141,
      "longitude": -111.51864,
      "dataTimeZone": -8,
      "shefId": "MRMA3",
      "beginDate": "1963-01-01 00:00",
      "endDate": "2100-01-01 00:00",
      "pedonCode": ""
    },
    {
      "stationTriplet": "642:WA:SNTL",
      "stationId": 642,
      "stateCode": "WA",
      "networkCode": "SNTL",
      "name": "Morse Lake",
      "dcoCode": "OR",
      "countyName": "Yakima",
      "huc": 170300020106,
      "elevation": 5400,
      "latitude": 46.90585,
      "longitude": -121.4827,
      "dataTimeZone": -8,
      "shefId": "MRSW1",
      "beginDate": "1978-10-01 00:00",
      "endDate": "2100-01-01 00:00",
      "pedonCode": ""
    },
    {
      "stationTriplet": "646:MT:SNTL",
      "stationId": 646,
      "stateCode": "MT",
      "networkCode": "SNTL",
      "name": "Moss Peak",
      "dcoCode": "MT",
      "countyName": "Lake",
      "huc": 170102080404,
      "elevation": 6760,
      "latitude": 47.68497,
      "longitude": -113.96239,
      "dataTimeZone": -8,
      "shefId": "MSPM8",
      "beginDate": "1961-04-01 00:00",
      "endDate": "2100-01-01 00:00",
      "pedonCode": ""
    },
    {
      "stationTriplet": "647:OR:SNTL",
      "stationId": 647,
      "stateCode": "OR",
      "networkCode": "SNTL",
      "name": "Moss Springs",
      "dcoCode": "OR",
      "countyName": "Union",
      "huc": 170601040702,
      "elevation": 5760,
      "latitude": 45.27173,
      "longitude": -117.68747,
      "dataTimeZone": -8,
      "shefId": "MOSO3",
      "beginDate": "1979-10-01 00:00",
      "endDate": "2100-01-01 00:00",
      "pedonCode": 31329
    },
    {
      "stationTriplet": "649:MT:SNTL",
      "stationId": 649,
      "stateCode": "MT",
      "networkCode": "SNTL",
      "name": "Mount Lockhart",
      "dcoCode": "MT",
      "countyName": "Teton",
      "huc": 100302050102,
      "elevation": 6430,
      "latitude": 47.91727,
      "longitude": -112.8238,
      "dataTimeZone": -8,
      "shefId": "MTKM8",
      "beginDate": "1968-10-01 00:00",
      "endDate": "2100-01-01 00:00",
      "pedonCode": ""
    },
    {
      "stationTriplet": "651:OR:SNTL",
      "stationId": 651,
      "stateCode": "OR",
      "networkCode": "SNTL",
      "name": "Mt Hood Test Site",
      "dcoCode": "OR",
      "countyName": "Clackamas",
      "huc": 170800010302,
      "elevation": 5380,
      "latitude": 45.32097,
      "longitude": -121.7158,
      "dataTimeZone": -8,
      "shefId": "MTHO3",
      "beginDate": "1979-10-01 00:00",
      "endDate": "2100-01-01 00:00",
      "pedonCode": ""
    },
    {
      "stationTriplet": "652:NV:SNTL",
      "stationId": 652,
      "stateCode": "NV",
      "networkCode": "SNTL",
      "name": "Mt Rose Ski Area",
      "dcoCode": "UT",
      "countyName": "Washoe",
      "huc": 160501020304,
      "elevation": 8810,
      "latitude": 39.31573,
      "longitude": -119.89473,
      "dataTimeZone": -8,
      "shefId": "MRSN2",
      "beginDate": "1980-10-01 00:00",
      "endDate": "2100-01-01 00:00",
      "pedonCode": ""
    },
    {
      "stationTriplet": "660:OR:SNTL",
      "stationId": 660,
      "stateCode": "OR",
      "networkCode": "SNTL",
      "name": "New Crescent Lake",
      "dcoCode": "OR",
      "countyName": "Klamath",
      "huc": 170703020205,
      "elevation": 4910,
      "latitude": 43.51185,
      "longitude": -121.97982,
      "dataTimeZone": -8,
      "shefId": "NCLO3",
      "beginDate": "1979-10-01 00:00",
      "endDate": "2100-01-01 00:00",
      "pedonCode": ""
    },
    {
      "stationTriplet": "663:CO:SNTL",
      "stationId": 663,
      "stateCode": "CO",
      "networkCode": "SNTL",
      "name": "Niwot",
      "dcoCode": "CO",
      "countyName": "Boulder",
      "huc": 101900050401,
      "elevation": 9940,
      "latitude": 40.03581,
      "longitude": -105.5452,
      "dataTimeZone": -8,
      "shefId": "NIWC2",
      "beginDate": "1979-10-01 00:00",
      "endDate": "2100-01-01 00:00",
      "pedonCode": ""
    },
    {
      "stationTriplet": "665:NM:SNTL",
      "stationId": 665,
      "stateCode": "NM",
      "networkCode": "SNTL",
      "name": "North Costilla",
      "dcoCode": "CO",
      "countyName": "Taos",
      "huc": 130201010101,
      "elevation": 10570,
      "latitude": 36.99396,
      "longitude": -105.25988,
      "dataTimeZone": -8,
      "shefId": "NCSN5",
      "beginDate": "1978-10-01 00:00",
      "endDate": "2100-01-01 00:00",
      "pedonCode": ""
    },
    {
      "stationTriplet": "668:WY:SNTL",
      "stationId": 668,
      "stateCode": "WY",
      "networkCode": "SNTL",
      "name": "North French Creek",
      "dcoCode": "CO",
      "countyName": "Carbon",
      "huc": 101800020502,
      "elevation": 10150,
      "latitude": 41.33087,
      "longitude": -106.37558,
      "dataTimeZone": -8,
      "shefId": "NFCW4",
      "beginDate": "1962-09-01 00:00",
      "endDate": "2100-01-01 00:00",
      "pedonCode": ""
    },
    {
      "stationTriplet": "670:MT:SNTL",
      "stationId": 670,
      "stateCode": "MT",
      "networkCode": "SNTL",
      "name": "Northeast Entrance",
      "dcoCode": "MT",
      "countyName": "Yellowstone National Park",
      "huc": 100700010602,
      "elevation": 7420,
      "latitude": 45.00568,
      "longitude": -110.01411,
      "dataTimeZone": -8,
      "shefId": "NORM8",
      "beginDate": "1937-10-01 00:00",
      "endDate": "2100-01-01 00:00",
      "pedonCode": ""
    },
    {
      "stationTriplet": "671:OR:SNTL",
      "stationId": 671,
      "stateCode": "OR",
      "networkCode": "SNTL",
      "name": "Ochoco Meadows",
      "dcoCode": "OR",
      "countyName": "Crook",
      "huc": 170703050201,
      "elevation": 5430,
      "latitude": 44.42917,
      "longitude": -120.3311,
      "dataTimeZone": -8,
      "shefId": "OCMO3",
      "beginDate": "1979-10-01 00:00",
      "endDate": "2100-01-01 00:00",
      "pedonCode": ""
    },
    {
      "stationTriplet": "680:CO:SNTL",
      "stationId": 680,
      "stateCode": "CO",
      "networkCode": "SNTL",
      "name": "Park Cone",
      "dcoCode": "CO",
      "countyName": "Gunnison",
      "huc": 140200010107,
      "elevation": 9600,
      "latitude": 38.81982,
      "longitude": -106.58962,
      "dataTimeZone": -8,
      "shefId": "PKCC2",
      "beginDate": "1979-10-01 00:00",
      "endDate": "2100-01-01 00:00",
      "pedonCode": ""
    },
    {
      "stationTriplet": "687:OR:SNTL",
      "stationId": 687,
      "stateCode": "OR",
      "networkCode": "SNTL",
      "name": "Peavine Ridge",
      "dcoCode": "OR",
      "countyName": "Clackamas",
      "huc": 170900110306,
      "elevation": 3420,
      "latitude": 45.04148,
      "longitude": -121.93252,
      "dataTimeZone": -8,
      "shefId": "PVRO3",
      "beginDate": "1979-10-01 00:00",
      "endDate": "2100-01-01 00:00",
      "pedonCode": ""
    },
    {
      "stationTriplet": "930:MT:SNTL",
      "stationId": 930,
      "stateCode": "MT",
      "networkCode": "SNTL",
      "name": "Peterson Meadows",
      "dcoCode": "MT",
      "countyName": "Granite",
      "huc": 170102020101,
      "elevation": 7190,
      "latitude": 46.12588,
      "longitude": -113.30792,
      "dataTimeZone": -8,
      "shefId": "PTNM8",
      "beginDate": "1965-10-01 00:00",
      "endDate": "2100-01-01 00:00",
      "pedonCode": ""
    },
    {
      "stationTriplet": "690:MT:SNTL",
      "stationId": 690,
      "stateCode": "MT",
      "networkCode": "SNTL",
      "name": "Pickfoot Creek",
      "dcoCode": "MT",
      "countyName": "Meagher",
      "huc": 100301030501,
      "elevation": 6680,
      "latitude": 46.57969,
      "longitude": -111.26812,
      "dataTimeZone": -8,
      "shefId": "PCKM8",
      "beginDate": "1977-06-01 00:00",
      "endDate": "2100-01-01 00:00",
      "pedonCode": ""
    },
    {
      "stationTriplet": "691:UT:SNTL",
      "stationId": 691,
      "stateCode": "UT",
      "networkCode": "SNTL",
      "name": "Pickle Keg",
      "dcoCode": "UT",
      "countyName": "Sevier",
      "huc": 160300030402,
      "elevation": 9010,
      "latitude": 39.01219,
      "longitude": -111.58259,
      "dataTimeZone": -8,
      "shefId": "PKLU1",
      "beginDate": "1978-10-01 00:00",
      "endDate": "2100-01-01 00:00",
      "pedonCode": ""
    },
    {
      "stationTriplet": "692:WA:SNTL",
      "stationId": 692,
      "stateCode": "WA",
      "networkCode": "SNTL",
      "name": "Pigtail Peak",
      "dcoCode": "OR",
      "countyName": "Yakima",
      "huc": 170300020301,
      "elevation": 5800,
      "latitude": 46.62153,
      "longitude": -121.38643,
      "dataTimeZone": -8,
      "shefId": "PGPW1",
      "beginDate": "1979-10-01 00:00",
      "endDate": "2100-01-01 00:00",
      "pedonCode": ""
    },
    {
      "stationTriplet": "693:MT:SNTL",
      "stationId": 693,
      "stateCode": "MT",
      "networkCode": "SNTL",
      "name": "Pike Creek",
      "dcoCode": "MT",
      "countyName": "Pondera",
      "huc": 100302010103,
      "elevation": 5930,
      "latitude": 48.30305,
      "longitude": -113.32868,
      "dataTimeZone": -8,
      "shefId": "PICM8",
      "beginDate": "1960-10-01 00:00",
      "endDate": "2100-01-01 00:00",
      "pedonCode": ""
    },
    {
      "stationTriplet": "694:UT:SNTL",
      "stationId": 694,
      "stateCode": "UT",
      "networkCode": "SNTL",
      "name": "Pine Creek",
      "dcoCode": "UT",
      "countyName": "Millard",
      "huc": 160300051307,
      "elevation": 8720,
      "latitude": 38.88185,
      "longitude": -112.24915,
      "dataTimeZone": -8,
      "shefId": "PCKU1",
      "beginDate": "1985-02-13 00:00",
      "endDate": "2100-01-01 00:00",
      "pedonCode": ""
    },
    {
      "stationTriplet": "696:MT:SNTL",
      "stationId": 696,
      "stateCode": "MT",
      "networkCode": "SNTL",
      "name": "Placer Basin",
      "dcoCode": "MT",
      "countyName": "Sweet Grass",
      "huc": 100700020701,
      "elevation": 8790,
      "latitude": 45.41905,
      "longitude": -110.08844,
      "dataTimeZone": -8,
      "shefId": "PLCM8",
      "beginDate": "1976-10-01 00:00",
      "endDate": "2100-01-01 00:00",
      "pedonCode": ""
    },
    {
      "stationTriplet": "702:WA:SNTL",
      "stationId": 702,
      "stateCode": "WA",
      "networkCode": "SNTL",
      "name": "Potato Hill",
      "dcoCode": "OR",
      "countyName": "Yakima",
      "huc": 170800040303,
      "elevation": 4480,
      "latitude": 46.3497,
      "longitude": -121.51415,
      "dataTimeZone": -8,
      "shefId": "PTHW1",
      "beginDate": "1980-10-01 00:00",
      "endDate": "2100-01-01 00:00",
      "pedonCode": ""
    },
    {
      "stationTriplet": "705:AZ:SNTL",
      "stationId": 705,
      "stateCode": "AZ",
      "networkCode": "SNTL",
      "name": "Promontory",
      "dcoCode": "CO",
      "countyName": "Coconino",
      "huc": 150200080306,
      "elevation": 7930,
      "latitude": 34.36848,
      "longitude": -111.01088,
      "dataTimeZone": -8,
      "shefId": "PROA3",
      "beginDate": "1979-10-01 00:00",
      "endDate": "2100-01-01 00:00",
      "pedonCode": ""
    },
    {
      "stationTriplet": "715:NM:SNTL",
      "stationId": 715,
      "stateCode": "NM",
      "networkCode": "SNTL",
      "name": "Red River Pass #2",
      "dcoCode": "CO",
      "countyName": "Taos",
      "huc": 130201010301,
      "elevation": 9840,
      "latitude": 36.69935,
      "longitude": -105.34145,
      "dataTimeZone": -8,
      "shefId": "RRPN5",
      "beginDate": "1978-10-01 00:00",
      "endDate": "2100-01-01 00:00",
      "pedonCode": ""
    },
    {
      "stationTriplet": "716:WY:SNTL",
      "stationId": 716,
      "stateCode": "WY",
      "networkCode": "SNTL",
      "name": "Reno Hill",
      "dcoCode": "CO",
      "countyName": "Natrona",
      "huc": 101800070901,
      "elevation": 8410,
      "latitude": 42.57089,
      "longitude": -106.08969,
      "dataTimeZone": -8,
      "shefId": "RNHW4",
      "beginDate": "1979-10-01 00:00",
      "endDate": "2100-01-01 00:00",
      "pedonCode": ""
    },
    {
      "stationTriplet": "718:CO:SNTL",
      "stationId": 718,
      "stateCode": "CO",
      "networkCode": "SNTL",
      "name": "Roach",
      "dcoCode": "CO",
      "countyName": "Larimer",
      "huc": 101800100106,
      "elevation": 9710,
      "latitude": 40.87498,
      "longitude": -106.04675,
      "dataTimeZone": -8,
      "shefId": "ROAC2",
      "beginDate": "1979-10-01 00:00",
      "endDate": "2100-01-01 00:00",
      "pedonCode": ""
    },
    {
      "stationTriplet": "917:MT:SNTL",
      "stationId": 917,
      "stateCode": "MT",
      "networkCode": "SNTL",
      "name": "Rocky Boy",
      "dcoCode": "MT",
      "countyName": "Hill",
      "huc": 100500040101,
      "elevation": 4730,
      "latitude": 48.17478,
      "longitude": -109.64728,
      "dataTimeZone": -8,
      "shefId": "ROCM8",
      "beginDate": "1967-10-01 00:00",
      "endDate": "2100-01-01 00:00",
      "pedonCode": ""
    },
    {
      "stationTriplet": "725:MT:SNTL",
      "stationId": 725,
      "stateCode": "MT",
      "networkCode": "SNTL",
      "name": "S Fork Shields",
      "dcoCode": "MT",
      "countyName": "Park",
      "huc": 100700030301,
      "elevation": 8090,
      "latitude": 46.08963,
      "longitude": -110.43367,
      "dataTimeZone": -8,
      "shefId": "SFSM8",
      "beginDate": "1978-10-01 00:00",
      "endDate": "2100-01-01 00:00",
      "pedonCode": ""
    },
    {
      "stationTriplet": "726:OR:SNTL",
      "stationId": 726,
      "stateCode": "OR",
      "networkCode": "SNTL",
      "name": "Saddle Mountain",
      "dcoCode": "OR",
      "countyName": "Washington",
      "huc": 170900100201,
      "elevation": 3090,
      "latitude": 45.54475,
      "longitude": -123.37331,
      "dataTimeZone": -8,
      "shefId": "SDMO3",
      "beginDate": "1978-10-01 00:00",
      "endDate": "2100-01-01 00:00",
      "pedonCode": ""
    },
    {
      "stationTriplet": "727:MT:SNTL",
      "stationId": 727,
      "stateCode": "MT",
      "networkCode": "SNTL",
      "name": "Saddle Mtn.",
      "dcoCode": "MT",
      "countyName": "Beaverhead",
      "huc": 170102050502,
      "elevation": 7890,
      "latitude": 45.69259,
      "longitude": -113.96828,
      "dataTimeZone": -8,
      "shefId": "SDMM8",
      "beginDate": "1979-10-01 00:00",
      "endDate": "2100-01-01 00:00",
      "pedonCode": ""
    },
    {
      "stationTriplet": "733:OR:SNTL",
      "stationId": 733,
      "stateCode": "OR",
      "networkCode": "SNTL",
      "name": "Santiam Jct.",
      "dcoCode": "OR",
      "countyName": "Linn",
      "huc": 170900040201,
      "elevation": 3740,
      "latitude": 44.43503,
      "longitude": -121.94502,
      "dataTimeZone": -8,
      "shefId": "SAJO3",
      "beginDate": "1978-10-01 00:00",
      "endDate": "2100-01-01 00:00",
      "pedonCode": ""
    },
    {
      "stationTriplet": "737:CO:SNTL",
      "stationId": 737,
      "stateCode": "CO",
      "networkCode": "SNTL",
      "name": "Schofield Pass",
      "dcoCode": "CO",
      "countyName": "Gunnison",
      "huc": 140100040701,
      "elevation": 10640,
      "latitude": 39.01467,
      "longitude": -107.04933,
      "dataTimeZone": -8,
      "shefId": "SOSC2",
      "beginDate": "1984-10-01 00:00",
      "endDate": "2100-01-01 00:00",
      "pedonCode": 53324
    },
    {
      "stationTriplet": "738:ID:SNTL",
      "stationId": 738,
      "stateCode": "ID",
      "networkCode": "SNTL",
      "name": "Schweitzer Basin",
      "dcoCode": "ID",
      "countyName": "Bonner",
      "huc": 170102150502,
      "elevation": 6090,
      "latitude": 48.37428,
      "longitude": -116.63917,
      "dataTimeZone": -8,
      "shefId": "STZI1",
      "beginDate": "1979-10-01 00:00",
      "endDate": "2100-01-01 00:00",
      "pedonCode": ""
    },
    {
      "stationTriplet": "742:UT:SNTL",
      "stationId": 742,
      "stateCode": "UT",
      "networkCode": "SNTL",
      "name": "Seeley Creek",
      "dcoCode": "UT",
      "countyName": "Sanpete",
      "huc": 140600090203,
      "elevation": 9900,
      "latitude": 39.31042,
      "longitude": -111.43297,
      "dataTimeZone": -8,
      "shefId": "SEEU1",
      "beginDate": "1978-10-18 00:00",
      "endDate": "2100-01-01 00:00",
      "pedonCode": ""
    },
    {
      "stationTriplet": "745:OR:SNTL",
      "stationId": 745,
      "stateCode": "OR",
      "networkCode": "SNTL",
      "name": "Sevenmile Marsh",
      "dcoCode": "OR",
      "countyName": "Klamath",
      "huc": 180102030104,
      "elevation": 5690,
      "latitude": 42.69825,
      "longitude": -122.14165,
      "dataTimeZone": -8,
      "shefId": "SVMO3",
      "beginDate": "1979-10-01 00:00",
      "endDate": "2100-01-01 00:00",
      "pedonCode": ""
    },
    {
      "stationTriplet": "746:NV:SNTL",
      "stationId": 746,
      "stateCode": "NV",
      "networkCode": "SNTL",
      "name": "Seventysix Creek",
      "dcoCode": "UT",
      "countyName": "Elko",
      "huc": 170501020108,
      "elevation": 7360,
      "latitude": 41.73732,
      "longitude": -115.47215,
      "dataTimeZone": -8,
      "shefId": "SSCN2",
      "beginDate": "1978-10-01 00:00",
      "endDate": "2100-01-01 00:00",
      "pedonCode": ""
    },
    {
      "stationTriplet": "749:ID:SNTL",
      "stationId": 749,
      "stateCode": "ID",
      "networkCode": "SNTL",
      "name": "Sheep Mtn.",
      "dcoCode": "ID",
      "countyName": "Bingham",
      "huc": 170402050304,
      "elevation": 6630,
      "latitude": 43.2103,
      "longitude": -111.68792,
      "dataTimeZone": -8,
      "shefId": "SPMI1",
      "beginDate": "1978-10-01 00:00",
      "endDate": "2100-01-01 00:00",
      "pedonCode": 33719
    },
    {
      "stationTriplet": "759:OR:SNTL",
      "stationId": 759,
      "stateCode": "OR",
      "networkCode": "SNTL",
      "name": "Silvies",
      "dcoCode": "OR",
      "countyName": "Harney",
      "huc": 171200030201,
      "elevation": 7000,
      "latitude": 42.75333,
      "longitude": -118.68785,
      "dataTimeZone": -8,
      "shefId": "SLVO3",
      "beginDate": "1978-10-01 00:00",
      "endDate": "2100-01-01 00:00",
      "pedonCode": 34782
    },
    {
      "stationTriplet": "760:MT:SNTL",
      "stationId": 760,
      "stateCode": "MT",
      "networkCode": "SNTL",
      "name": "Skalkaho Summit",
      "dcoCode": "MT",
      "countyName": "Granite",
      "huc": 170102021003,
      "elevation": 7260,
      "latitude": 46.24212,
      "longitude": -113.7725,
      "dataTimeZone": -8,
      "shefId": "SKAM8",
      "beginDate": "1966-10-01 00:00",
      "endDate": "2100-01-01 00:00",
      "pedonCode": ""
    },
    {
      "stationTriplet": "762:CO:SNTL",
      "stationId": 762,
      "stateCode": "CO",
      "networkCode": "SNTL",
      "name": "Slumgullion",
      "dcoCode": "CO",
      "countyName": "Hinsdale",
      "huc": 140200020502,
      "elevation": 11560,
      "latitude": 37.99076,
      "longitude": -107.20392,
      "dataTimeZone": -8,
      "shefId": "SLMC2",
      "beginDate": "1979-10-01 00:00",
      "endDate": "2100-01-01 00:00",
      "pedonCode": ""
    },
    {
      "stationTriplet": "764:WY:SNTL",
      "stationId": 764,
      "stateCode": "WY",
      "networkCode": "SNTL",
      "name": "Snake River Station",
      "dcoCode": "ID",
      "countyName": "Teton",
      "huc": 170401010402,
      "elevation": 6900,
      "latitude": 44.13361,
      "longitude": -110.66917,
      "dataTimeZone": -8,
      "shefId": "SKRW4",
      "beginDate": "1989-10-01 00:00",
      "endDate": "2100-01-01 00:00",
      "pedonCode": 55510
    },
    {
      "stationTriplet": "767:OR:SNTL",
      "stationId": 767,
      "stateCode": "OR",
      "networkCode": "SNTL",
      "name": "Snow Mountain",
      "dcoCode": "OR",
      "countyName": "Harney",
      "huc": 171200020501,
      "elevation": 6230,
      "latitude": 43.94885,
      "longitude": -119.54013,
      "dataTimeZone": -8,
      "shefId": "SNWO3",
      "beginDate": "1978-10-01 00:00",
      "endDate": "2100-01-01 00:00",
      "pedonCode": 33088
    },
    {
      "stationTriplet": "772:WY:SNTL",
      "stationId": 772,
      "stateCode": "WY",
      "networkCode": "SNTL",
      "name": "South Brush Creek",
      "dcoCode": "CO",
      "countyName": "Carbon",
      "huc": 101800020303,
      "elevation": 8480,
      "latitude": 41.3295,
      "longitude": -106.5025,
      "dataTimeZone": -8,
      "shefId": "SBCW4",
      "beginDate": "1976-02-01 00:00",
      "endDate": "2100-01-01 00:00",
      "pedonCode": ""
    },
    {
      "stationTriplet": "776:WA:SNTL",
      "stationId": 776,
      "stateCode": "WA",
      "networkCode": "SNTL",
      "name": "Spencer Meadow",
      "dcoCode": "OR",
      "countyName": "Skamania",
      "huc": 170800020108,
      "elevation": 3400,
      "latitude": 46.1795,
      "longitude": -121.92661,
      "dataTimeZone": -8,
      "shefId": "SPMW1",
      "beginDate": "1980-10-01 00:00",
      "endDate": "2100-01-01 00:00",
      "pedonCode": ""
    },
    {
      "stationTriplet": "778:CA:SNTL",
      "stationId": 778,
      "stateCode": "CA",
      "networkCode": "SNTL",
      "name": "Spratt Creek",
      "dcoCode": "UT",
      "countyName": "Alpine",
      "huc": 160502010107,
      "elevation": 6060,
      "latitude": 38.66627,
      "longitude": -119.81741,
      "dataTimeZone": -8,
      "shefId": "SPCC1",
      "beginDate": "1983-10-01 00:00",
      "endDate": "2100-01-01 00:00",
      "pedonCode": 59489
    },
    {
      "stationTriplet": "780:CO:SNTL",
      "stationId": 780,
      "stateCode": "CO",
      "networkCode": "SNTL",
      "name": "Spud Mountain",
      "dcoCode": "CO",
      "countyName": "San Juan",
      "huc": 140801040202,
      "elevation": 10660,
      "latitude": 37.69883,
      "longitude": -107.77841,
      "dataTimeZone": -8,
      "shefId": "SPSC2",
      "beginDate": "1985-10-01 00:00",
      "endDate": "2100-01-01 00:00",
      "pedonCode": ""
    },
    {
      "stationTriplet": "781:MT:SNTL",
      "stationId": 781,
      "stateCode": "MT",
      "networkCode": "SNTL",
      "name": "Spur Park",
      "dcoCode": "MT",
      "countyName": "Judith Basin",
      "huc": 100401030301,
      "elevation": 8080,
      "latitude": 46.77962,
      "longitude": -110.62165,
      "dataTimeZone": -8,
      "shefId": "SPRM8",
      "beginDate": "1966-10-01 00:00",
      "endDate": "2100-01-01 00:00",
      "pedonCode": 54826
    },
    {
      "stationTriplet": "786:WY:SNTL",
      "stationId": 786,
      "stateCode": "WY",
      "networkCode": "SNTL",
      "name": "St. Lawrence Alt",
      "dcoCode": "MT",
      "countyName": "Fremont",
      "huc": 100800020105,
      "elevation": 8610,
      "latitude": 43.03312,
      "longitude": -109.17021,
      "dataTimeZone": -8,
      "shefId": "SLAW4",
      "beginDate": "1983-10-01 00:00",
      "endDate": "2100-01-01 00:00",
      "pedonCode": ""
    },
    {
      "stationTriplet": "787:MT:SNTL",
      "stationId": 787,
      "stateCode": "MT",
      "networkCode": "SNTL",
      "name": "Stahl Peak",
      "dcoCode": "MT",
      "countyName": "Lincoln",
      "huc": 170101010801,
      "elevation": 6040,
      "latitude": 48.90902,
      "longitude": -114.86298,
      "dataTimeZone": -8,
      "shefId": "STAM8",
      "beginDate": "1968-10-01 00:00",
      "endDate": "2100-01-01 00:00",
      "pedonCode": ""
    },
    {
      "stationTriplet": "788:WA:SNTL",
      "stationId": 788,
      "stateCode": "WA",
      "networkCode": "SNTL",
      "name": "Stampede Pass",
      "dcoCode": "OR",
      "countyName": "King",
      "huc": 171100130103,
      "elevation": 3850,
      "latitude": 47.27427,
      "longitude": -121.34162,
      "dataTimeZone": -8,
      "shefId": "SMPW1",
      "beginDate": "1979-10-01 00:00",
      "endDate": "2100-01-01 00:00",
      "pedonCode": ""
    },
    {
      "stationTriplet": "789:OR:SNTL",
      "stationId": 789,
      "stateCode": "OR",
      "networkCode": "SNTL",
      "name": "Starr Ridge",
      "dcoCode": "OR",
      "countyName": "Grant",
      "huc": 171200020102,
      "elevation": 5240,
      "latitude": 44.26423,
      "longitude": -119.02162,
      "dataTimeZone": -8,
      "shefId": "STRO3",
      "beginDate": "1979-10-01 00:00",
      "endDate": "2100-01-01 00:00",
      "pedonCode": ""
    },
    {
      "stationTriplet": "791:WA:SNTL",
      "stationId": 791,
      "stateCode": "WA",
      "networkCode": "SNTL",
      "name": "Stevens Pass",
      "dcoCode": "OR",
      "countyName": "King",
      "huc": 171100090102,
      "elevation": 3940,
      "latitude": 47.74607,
      "longitude": -121.09288,
      "dataTimeZone": -8,
      "shefId": "SVNW1",
      "beginDate": "1979-10-01 00:00",
      "endDate": "2100-01-01 00:00",
      "pedonCode": ""
    },
    {
      "stationTriplet": "794:OR:SNTL",
      "stationId": 794,
      "stateCode": "OR",
      "networkCode": "SNTL",
      "name": "Strawberry",
      "dcoCode": "OR",
      "countyName": "Lake",
      "huc": 180102040501,
      "elevation": 5760,
      "latitude": 42.12587,
      "longitude": -120.8361,
      "dataTimeZone": -8,
      "shefId": "STWO3",
      "beginDate": "1979-10-01 00:00",
      "endDate": "2100-01-01 00:00",
      "pedonCode": ""
    },
    {
      "stationTriplet": "795:UT:SNTL",
      "stationId": 795,
      "stateCode": "UT",
      "networkCode": "SNTL",
      "name": "Strawberry Divide",
      "dcoCode": "UT",
      "countyName": "Wasatch",
      "huc": 140600040103,
      "elevation": 8100,
      "latitude": 40.16483,
      "longitude": -111.20665,
      "dataTimeZone": -8,
      "shefId": "STDU1",
      "beginDate": "1978-10-01 00:00",
      "endDate": "2100-01-01 00:00",
      "pedonCode": ""
    },
    {
      "stationTriplet": "798:WY:SNTL",
      "stationId": 798,
      "stateCode": "WY",
      "networkCode": "SNTL",
      "name": "Sucker Creek",
      "dcoCode": "MT",
      "countyName": "Sheridan",
      "huc": 100901010203,
      "elevation": 8840,
      "latitude": 44.72279,
      "longitude": -107.40035,
      "dataTimeZone": -8,
      "shefId": "SUCW4",
      "beginDate": "1978-10-01 00:00",
      "endDate": "2100-01-01 00:00",
      "pedonCode": 35228
    },
    {
      "stationTriplet": "805:ID:SNTL",
      "stationId": 805,
      "stateCode": "ID",
      "networkCode": "SNTL",
      "name": "Swede Peak",
      "dcoCode": "ID",
      "countyName": "Blaine",
      "huc": 170402210301,
      "elevation": 7640,
      "latitude": 43.626,
      "longitude": -113.96887,
      "dataTimeZone": -8,
      "shefId": "SWPI1",
      "beginDate": "1978-10-01 00:00",
      "endDate": "2100-01-01 00:00",
      "pedonCode": ""
    },
    {
      "stationTriplet": "813:MT:SNTL",
      "stationId": 813,
      "stateCode": "MT",
      "networkCode": "SNTL",
      "name": "Tepee Creek",
      "dcoCode": "MT",
      "countyName": "Madison",
      "huc": 100200070602,
      "elevation": 7950,
      "latitude": 44.78562,
      "longitude": -111.71,
      "dataTimeZone": -8,
      "shefId": "TPEM8",
      "beginDate": "1971-10-01 00:00",
      "endDate": "2100-01-01 00:00",
      "pedonCode": ""
    },
    {
      "stationTriplet": "814:UT:SNTL",
      "stationId": 814,
      "stateCode": "UT",
      "networkCode": "SNTL",
      "name": "Thaynes Canyon",
      "dcoCode": "UT",
      "countyName": "Summit",
      "huc": 160201020101,
      "elevation": 9250,
      "latitude": 40.6235,
      "longitude": -111.53322,
      "dataTimeZone": -8,
      "shefId": "THCU1",
      "beginDate": "1988-06-20 00:00",
      "endDate": "2100-01-01 00:00",
      "pedonCode": ""
    },
    {
      "stationTriplet": "816:WY:SNTL",
      "stationId": 816,
      "stateCode": "WY",
      "networkCode": "SNTL",
      "name": "Thumb Divide",
      "dcoCode": "ID",
      "countyName": "Teton",
      "huc": 100700010409,
      "elevation": 7970,
      "latitude": 44.36917,
      "longitude": -110.57717,
      "dataTimeZone": -8,
      "shefId": "THUW4",
      "beginDate": "1987-09-30 00:00",
      "endDate": "2100-01-01 00:00",
      "pedonCode": ""
    },
    {
      "stationTriplet": "817:WA:SNTL",
      "stationId": 817,
      "stateCode": "WA",
      "networkCode": "SNTL",
      "name": "Thunder Basin",
      "dcoCode": "OR",
      "countyName": "Skagit",
      "huc": 171100050702,
      "elevation": 4310,
      "latitude": 48.52753,
      "longitude": -120.9895,
      "dataTimeZone": -8,
      "shefId": "THBW1",
      "beginDate": "1987-09-30 00:00",
      "endDate": "2100-01-01 00:00",
      "pedonCode": 34792
    },
    {
      "stationTriplet": "821:OR:SNTL",
      "stationId": 821,
      "stateCode": "OR",
      "networkCode": "SNTL",
      "name": "Tipton",
      "dcoCode": "OR",
      "countyName": "Baker",
      "huc": 170502020101,
      "elevation": 5150,
      "latitude": 44.65567,
      "longitude": -118.42617,
      "dataTimeZone": -8,
      "shefId": "TIPO3",
      "beginDate": "1978-10-01 00:00",
      "endDate": "2100-01-01 00:00",
      "pedonCode": 31328
    },
    {
      "stationTriplet": "828:UT:SNTL",
      "stationId": 828,
      "stateCode": "UT",
      "networkCode": "SNTL",
      "name": "Trial Lake",
      "dcoCode": "UT",
      "countyName": "Summit",
      "huc": 160202030102,
      "elevation": 9970,
      "latitude": 40.678,
      "longitude": -110.94873,
      "dataTimeZone": -8,
      "shefId": "TRLU1",
      "beginDate": "1978-10-01 00:00",
      "endDate": "2100-01-01 00:00",
      "pedonCode": ""
    },
    {
      "stationTriplet": "833:UT:SNTL",
      "stationId": 833,
      "stateCode": "UT",
      "networkCode": "SNTL",
      "name": "Trout Creek",
      "dcoCode": "UT",
      "countyName": "Uintah",
      "huc": 140600100802,
      "elevation": 9440,
      "latitude": 40.739,
      "longitude": -109.6728,
      "dataTimeZone": -8,
      "shefId": "TCKU1",
      "beginDate": "1978-10-01 00:00",
      "endDate": "2100-01-01 00:00",
      "pedonCode": ""
    },
    {
      "stationTriplet": "834:CA:SNTL",
      "stationId": 834,
      "stateCode": "CA",
      "networkCode": "SNTL",
      "name": "Truckee #2",
      "dcoCode": "UT",
      "countyName": "Placer",
      "huc": 160501020204,
      "elevation": 6500,
      "latitude": 39.30087,
      "longitude": -120.18407,
      "dataTimeZone": -8,
      "shefId": "TRUC1",
      "beginDate": "1980-10-01 00:00",
      "endDate": "2100-01-01 00:00",
      "pedonCode": 70321
    },
    {
      "stationTriplet": "839:CO:SNTL",
      "stationId": 839,
      "stateCode": "CO",
      "networkCode": "SNTL",
      "name": "Upper Rio Grande",
      "dcoCode": "CO",
      "countyName": "Hinsdale",
      "huc": 130100010106,
      "elevation": 9370,
      "latitude": 37.72172,
      "longitude": -107.25971,
      "dataTimeZone": -8,
      "shefId": "URGC2",
      "beginDate": "1985-10-01 00:00",
      "endDate": "2100-01-01 00:00",
      "pedonCode": ""
    },
    {
      "stationTriplet": "841:WA:SNTL",
      "stationId": 841,
      "stateCode": "WA",
      "networkCode": "SNTL",
      "name": "Upper Wheeler",
      "dcoCode": "OR",
      "countyName": "Chelan",
      "huc": 170200100310,
      "elevation": 4330,
      "latitude": 47.28734,
      "longitude": -120.37015,
      "dataTimeZone": -8,
      "shefId": "UPWW1",
      "beginDate": "1979-10-01 00:00",
      "endDate": "2100-01-01 00:00",
      "pedonCode": ""
    },
    {
      "stationTriplet": "842:CO:SNTL",
      "stationId": 842,
      "stateCode": "CO",
      "networkCode": "SNTL",
      "name": "Vail Mountain",
      "dcoCode": "CO",
      "countyName": "Eagle",
      "huc": 140100030102,
      "elevation": 10290,
      "latitude": 39.61765,
      "longitude": -106.38019,
      "dataTimeZone": -8,
      "shefId": "VLMC2",
      "beginDate": "1978-10-01 00:00",
      "endDate": "2100-01-01 00:00",
      "pedonCode": ""
    },
    {
      "stationTriplet": "843:CO:SNTL",
      "stationId": 843,
      "stateCode": "CO",
      "networkCode": "SNTL",
      "name": "Vallecito",
      "dcoCode": "CO",
      "countyName": "La Plata",
      "huc": 140801011105,
      "elevation": 10740,
      "latitude": 37.48524,
      "longitude": -107.50748,
      "dataTimeZone": -8,
      "shefId": "VALC2",
      "beginDate": "1985-10-01 00:00",
      "endDate": "2100-01-01 00:00",
      "pedonCode": ""
    },
    {
      "stationTriplet": "844:UT:SNTL",
      "stationId": 844,
      "stateCode": "UT",
      "networkCode": "SNTL",
      "name": "Vernon Creek",
      "dcoCode": "UT",
      "countyName": "Tooele",
      "huc": 160203040102,
      "elevation": 7310,
      "latitude": 39.93667,
      "longitude": -112.41478,
      "dataTimeZone": -8,
      "shefId": "VNCU1",
      "beginDate": "1978-10-01 00:00",
      "endDate": "2100-01-01 00:00",
      "pedonCode": ""
    },
    {
      "stationTriplet": "845:ID:SNTL",
      "stationId": 845,
      "stateCode": "ID",
      "networkCode": "SNTL",
      "name": "Vienna Mine",
      "dcoCode": "ID",
      "countyName": "Blaine",
      "huc": 170602010201,
      "elevation": 8930,
      "latitude": 43.79942,
      "longitude": -114.85273,
      "dataTimeZone": -8,
      "shefId": "VNNI1",
      "beginDate": "1978-10-01 00:00",
      "endDate": "2100-01-01 00:00",
      "pedonCode": ""
    },
    {
      "stationTriplet": "849:NV:SNTL",
      "stationId": 849,
      "stateCode": "NV",
      "networkCode": "SNTL",
      "name": "Ward Mountain",
      "dcoCode": "UT",
      "countyName": "White Pine",
      "huc": 150100110105,
      "elevation": 9170,
      "latitude": 39.13242,
      "longitude": -114.95575,
      "dataTimeZone": -8,
      "shefId": "WDMN2",
      "beginDate": "1980-10-01 00:00",
      "endDate": "2100-01-01 00:00",
      "pedonCode": ""
    },
    {
      "stationTriplet": "924:MT:SNTL",
      "stationId": 924,
      "stateCode": "MT",
      "networkCode": "SNTL",
      "name": "West Yellowstone",
      "dcoCode": "MT",
      "countyName": "Gallatin",
      "huc": 100200070205,
      "elevation": 6680,
      "latitude": 44.65866,
      "longitude": -111.09199,
      "dataTimeZone": -8,
      "shefId": "WYSM8",
      "beginDate": "1966-10-01 00:00",
      "endDate": "2100-01-01 00:00",
      "pedonCode": ""
    },
    {
      "stationTriplet": "858:MT:SNTL",
      "stationId": 858,
      "stateCode": "MT",
      "networkCode": "SNTL",
      "name": "Whiskey Creek",
      "dcoCode": "MT",
      "countyName": "Gallatin",
      "huc": 100200070203,
      "elevation": 6790,
      "latitude": 44.61088,
      "longitude": -111.14998,
      "dataTimeZone": -8,
      "shefId": "WSKM8",
      "beginDate": "1967-10-01 00:00",
      "endDate": "2100-01-01 00:00",
      "pedonCode": ""
    },
    {
      "stationTriplet": "860:ID:SNTL",
      "stationId": 860,
      "stateCode": "ID",
      "networkCode": "SNTL",
      "name": "White Elephant",
      "dcoCode": "ID",
      "countyName": "Fremont",
      "huc": 170402020305,
      "elevation": 7670,
      "latitude": 44.53267,
      "longitude": -111.41085,
      "dataTimeZone": -8,
      "shefId": "WHEI1",
      "beginDate": "1979-10-01 00:00",
      "endDate": "2100-01-01 00:00",
      "pedonCode": ""
    },
    {
      "stationTriplet": "865:UT:SNTL",
      "stationId": 865,
      "stateCode": "UT",
      "networkCode": "SNTL",
      "name": "Widtsoe #3",
      "dcoCode": "UT",
      "countyName": "Garfield",
      "huc": 160300020403,
      "elevation": 9640,
      "latitude": 37.83633,
      "longitude": -111.88163,
      "dataTimeZone": -8,
      "shefId": "WSTU1",
      "beginDate": "1978-10-01 00:00",
      "endDate": "2100-01-01 00:00",
      "pedonCode": ""
    },
    {
      "stationTriplet": "869:CO:SNTL",
      "stationId": 869,
      "stateCode": "CO",
      "networkCode": "SNTL",
      "name": "Willow Creek Pass",
      "dcoCode": "CO",
      "countyName": "Grand",
      "huc": 140100010102,
      "elevation": 9520,
      "latitude": 40.34734,
      "longitude": -106.0952,
      "dataTimeZone": -8,
      "shefId": "WLLC2",
      "beginDate": "1978-10-01 00:00",
      "endDate": "2100-01-01 00:00",
      "pedonCode": ""
    },
    {
      "stationTriplet": "874:CO:SNTL",
      "stationId": 874,
      "stateCode": "CO",
      "networkCode": "SNTL",
      "name": "Wolf Creek Summit",
      "dcoCode": "CO",
      "countyName": "Mineral",
      "huc": 140801010203,
      "elevation": 10930,
      "latitude": 37.47903,
      "longitude": -106.80234,
      "dataTimeZone": -8,
      "shefId": "WCSC2",
      "beginDate": "1985-10-01 00:00",
      "endDate": "2100-01-01 00:00",
      "pedonCode": ""
    },
    {
      "stationTriplet": "876:MT:SNTL",
      "stationId": 876,
      "stateCode": "MT",
      "networkCode": "SNTL",
      "name": "Wood Creek",
      "dcoCode": "MT",
      "countyName": "Lewis and Clark",
      "huc": 100301040202,
      "elevation": 5970,
      "latitude": 47.44847,
      "longitude": -112.81428,
      "dataTimeZone": -8,
      "shefId": "WODM8",
      "beginDate": "1978-10-01 00:00",
      "endDate": "2100-01-01 00:00",
      "pedonCode": ""
    },
    {
      "stationTriplet": "877:AZ:SNTL",
      "stationId": 877,
      "stateCode": "AZ",
      "networkCode": "SNTL",
      "name": "Workman Creek",
      "dcoCode": "CO",
      "countyName": "Gila",
      "huc": 150601030802,
      "elevation": 7030,
      "latitude": 33.81259,
      "longitude": -110.91852,
      "dataTimeZone": -8,
      "shefId": "WKMA3",
      "beginDate": "1938-12-01 00:00",
      "endDate": "2100-01-01 00:00",
      "pedonCode": ""
    },
    {
      "stationTriplet": "763:UT:SNTL",
      "stationId": 763,
      "stateCode": "UT",
      "networkCode": "SNTL",
      "name": "Smith Morehouse",
      "dcoCode": "UT",
      "countyName": "Summit",
      "huc": 160201010203,
      "elevation": 7640,
      "latitude": 40.78931,
      "longitude": -111.09192,
      "dataTimeZone": -8,
      "shefId": "SMMU1",
      "beginDate": "1978-10-01 00:00",
      "endDate": "2100-01-01 00:00",
      "pedonCode": ""
    }
  ]